x1,cmplnt_num,addr_pct_cd,boro_nm,cmplnt_fr_dt,cmplnt_fr_tm,cmplnt_to_dt,cmplnt_to_tm,crm_atpt_cptd_cd,hadevelopt,housing_psa,jurisdiction_code,juris_desc,ky_cd,law_cat_cd,loc_of_occur_desc,ofns_desc,parks_nm,patrol_boro,pd_cd,pd_desc,prem_typ_desc,rpt_dt,station_name,susp_age_group,susp_race,susp_sex,transit_district,vic_age_group,vic_race,vic_sex,x_coord_cd,y_coord_cd,latitude,longitude,lat_lon,new_georeferenced_column,closest_station,closest_line,distance
1,985806516,14,MANHATTAN,09/25/2021,4:24:00,09/25/2021,4:33:00,COMPLETED,,,1,N.Y. TRANSIT POLICE,236,MISDEMEANOR,,DANGEROUS WEAPONS,,PATROL BORO MAN SOUTH,782,"WEAPONS, POSSESSION, ETC",TRANSIT - NYC SUBWAY,09/25/2021,42 STREET,,,,1,UNKNOWN,UNKNOWN,E,988650,214286,40.75484922,-73.98411999,"(40.754849215000036, -73.98411999099994)",POINT (-73.98411999099994 40.754849215000036),42 ST-BRYANT PK,BDFM,1.56536499946655e-10
2,448567745,14,MANHATTAN,09/22/2021,21:23:00,09/22/2021,21:28:00,COMPLETED,,,1,N.Y. TRANSIT POLICE,113,FELONY,,FORGERY,,PATROL BORO MAN SOUTH,729,"FORGERY,ETC.,UNCLASSIFIED-FELO",TRANSIT - NYC SUBWAY,09/22/2021,42 ST.-TIMES SQUARE,45-64,BLACK,M,1,UNKNOWN,UNKNOWN,E,987866,214721,40.75604354,-73.98694954,"(40.75604353500006, -73.98694954399997)",POINT (-73.98694954399997 40.75604353500006),TIMES SQ-42 ST,1237NQRSW,4.57076852010425e-08
3,104703870,103,QUEENS,09/29/2021,10:10:00,09/29/2021,10:14:00,COMPLETED,,,1,N.Y. TRANSIT POLICE,113,FELONY,,FORGERY,,PATROL BORO QUEENS SOUTH,729,"FORGERY,ETC.,UNCLASSIFIED-FELO",TRANSIT - NYC SUBWAY,09/29/2021,PARSONS/ARCHER-JAMAICA CENTER,25-44,BLACK,M,20,UNKNOWN,UNKNOWN,E,1039726,195270,40.70248213,-73.79992225,"(40.702482133000046, -73.799922252)",POINT (-73.799922252 40.702482133000046),JAMAICA CENTER,EJZ,1.0255975274001e-06
4,229485544,44,BRONX,09/26/2021,15:44:00,09/26/2021,15:51:00,COMPLETED,,,1,N.Y. TRANSIT POLICE,113,FELONY,,FORGERY,,PATROL BORO BRONX,729,"FORGERY,ETC.,UNCLASSIFIED-FELO",TRANSIT - NYC SUBWAY,09/26/2021,161 ST.-YANKEE STADIUM,18-24,BLACK,M,11,UNKNOWN,UNKNOWN,E,1004749,240880,40.8278199,-73.92593076,"(40.827819901000055, -73.92593075599996)",POINT (-73.92593075599996 40.827819901000055),161/YANKEE STAD,4BD,1.75402177599273e-07
5,956425746,14,MANHATTAN,09/26/2021,15:00:00,09/26/2021,18:22:00,COMPLETED,,,1,N.Y. TRANSIT POLICE,351,MISDEMEANOR,,CRIMINAL MISCHIEF & RELATED OF,,PATROL BORO MAN SOUTH,258,"CRIMINAL MISCHIEF 4TH, GRAFFIT",TRANSIT - NYC SUBWAY,09/26/2021,42 ST.-TIMES SQUARE,,,,1,UNKNOWN,UNKNOWN,E,987866,214721,40.75604354,-73.98694954,"(40.75604353500006, -73.98694954399997)",POINT (-73.98694954399997 40.75604353500006),TIMES SQ-42 ST,1237NQRSW,4.57076852010425e-08
6,569759723,18,MANHATTAN,09/23/2021,4:09:00,09/23/2021,4:15:00,COMPLETED,,,1,N.Y. TRANSIT POLICE,351,MISDEMEANOR,,CRIMINAL MISCHIEF & RELATED OF,,PATROL BORO MAN SOUTH,258,"CRIMINAL MISCHIEF 4TH, GRAFFIT",TRANSIT - NYC SUBWAY,09/23/2021,7 AVENUE,,,,1,UNKNOWN,UNKNOWN,D,989266,217247,40.76297608,-73.98189438,"(40.76297607600002, -73.98189437799994)",POINT (-73.98189437799994 40.76297607600002),7 AV,BQ,2.62809950804953e-07
7,500754116,72,BROOKLYN,09/24/2021,6:43:00,09/24/2021,6:50:00,COMPLETED,,,1,N.Y. TRANSIT POLICE,121,FELONY,,CRIMINAL MISCHIEF & RELATED OF,,PATROL BORO BKLYN SOUTH,269,"MISCHIEF,CRIMINAL,    UNCL 2ND",TRANSIT - NYC SUBWAY,09/24/2021,15 ST.-PROSPECT PARK,UNKNOWN,UNKNOWN,U,30,UNKNOWN,UNKNOWN,D,989916,180044,40.6608623,-73.97957927,"(40.66086229600006, -73.97957927099996)",POINT (-73.97957927099996 40.66086229600006),15 ST-PROSPECT,FG,5.3064759689692e-07
8,449899031,1,MANHATTAN,09/25/2021,22:00:00,09/25/2021,22:10:00,COMPLETED,,,1,N.Y. TRANSIT POLICE,578,VIOLATION,,HARRASSMENT 2,,PATROL BORO MAN SOUTH,637,"HARASSMENT,SUBD 1,CIVILIAN",TRANSIT - NYC SUBWAY,09/25/2021,FULTON STREET,25-44,BLACK,M,2,25-44,ASIAN / PACIFIC ISLANDER,F,982466,197787,40.70956442,-74.00643628,"(40.709564416000035, -74.00643628099994)",POINT (-74.00643628099994 40.709564416000035),FULTON ST,2345ACJZ,4.14180197279581e-06
9,732676250,28,MANHATTAN,09/29/2021,13:53:00,09/29/2021,13:56:00,COMPLETED,,,1,N.Y. TRANSIT POLICE,235,MISDEMEANOR,,DANGEROUS DRUGS,,PATROL BORO MAN NORTH,511,"CONTROLLED SUBSTANCE, POSSESSI",TRANSIT - NYC SUBWAY,09/29/2021,125 STREET,25-44,BLACK,M,3,UNKNOWN,UNKNOWN,E,999342,233575,40.80778062,-73.94548473,"(40.807780622000045, -73.94548472699995)",POINT (-73.94548472699995 40.807780622000045),125 ST,ABCD,5.81139808171326e-05
10,968731511,26,MANHATTAN,09/24/2021,18:18:00,09/24/2021,18:28:00,COMPLETED,,,1,N.Y. TRANSIT POLICE,113,FELONY,,FORGERY,,PATROL BORO MAN NORTH,729,"FORGERY,ETC.,UNCLASSIFIED-FELO",TRANSIT - NYC SUBWAY,09/24/2021,125 STREET,,,,3,UNKNOWN,UNKNOWN,E,997374,234664,40.81077277,-73.95259159,"(40.81077276700007, -73.95259158999993)",POINT (-73.95259158999993 40.81077276700007),125 ST,1,2.78020999901851e-10
11,810913047,52,BRONX,09/24/2021,16:30:00,09/24/2021,16:36:00,COMPLETED,,,1,N.Y. TRANSIT POLICE,341,MISDEMEANOR,,PETIT LARCENY,,PATROL BORO BRONX,339,"LARCENY,PETIT FROM OPEN AREAS,",TRANSIT - NYC SUBWAY,09/24/2021,205 ST.-NORWOOD,,,,11,65+,BLACK,M,1017587,258078,40.87498415,-73.8794567,"(40.874984151000035, -73.87945670399995)",POINT (-73.87945670399995 40.874984151000035),NORWOOD 205 ST,D,4.45224979250843e-06
12,733265772,114,QUEENS,09/09/2021,9:24:00,09/09/2021,9:30:00,COMPLETED,,,1,N.Y. TRANSIT POLICE,344,MISDEMEANOR,,ASSAULT 3 & RELATED OFFENSES,,PATROL BORO QUEENS NORTH,101,ASSAULT 3,TRANSIT - NYC SUBWAY,09/27/2021,ROOSEVELT ISLAND,UNKNOWN,BLACK,F,20,<18,BLACK,F,1007694,219657,40.76956124,-73.91536345,"(40.76956124200007, -73.91536344699995)",POINT (-73.91536344699995 40.76956124200007),ASTORIA BLVD,NW,4.0294631338128e-05
13,314804393,62,BROOKLYN,09/29/2021,16:17:00,09/29/2021,16:17:00,COMPLETED,,,1,N.Y. TRANSIT POLICE,113,FELONY,,FORGERY,,PATROL BORO BKLYN SOUTH,723,"FORGERY,DRIVERS LICENSE",TRANSIT - NYC SUBWAY,09/29/2021,BAY PARKWAY,,,,34,UNKNOWN,UNKNOWN,F,989317,162811,40.61356174,-73.98175121,"(40.61356174100007, -73.98175120699995)",POINT (-73.98175120699995 40.61356174100007),AVENUE N,F,6.10989800796188e-05
14,750076132,103,QUEENS,09/29/2021,9:10:00,09/29/2021,9:25:00,COMPLETED,,,1,N.Y. TRANSIT POLICE,231,MISDEMEANOR,,BURGLAR'S TOOLS,,PATROL BORO QUEENS SOUTH,209,"BURGLARS TOOLS,UNCLASSIFIED",TRANSIT - NYC SUBWAY,09/29/2021,PARSONS/ARCHER-JAMAICA CENTER,,,,20,UNKNOWN,UNKNOWN,E,1039726,195270,40.70248213,-73.79992225,"(40.702482133000046, -73.799922252)",POINT (-73.799922252 40.702482133000046),JAMAICA CENTER,EJZ,1.0255975274001e-06
15,589196930,68,BROOKLYN,09/23/2021,19:56:00,09/23/2021,20:00:00,COMPLETED,,,1,N.Y. TRANSIT POLICE,578,VIOLATION,,HARRASSMENT 2,,PATROL BORO BKLYN SOUTH,638,"HARASSMENT,SUBD 3,4,5",TRANSIT - NYC SUBWAY,09/24/2021,8 AVENUE,45-64,WHITE HISPANIC,F,34,25-44,ASIAN / PACIFIC ISLANDER,F,981268,170390,40.63436546,-74.01074531,"(40.634365460000026, -74.01074530599993)",POINT (-74.01074530599993 40.634365460000026),8 AV,N,5.09411377006843e-08
16,456184755,14,MANHATTAN,09/27/2021,18:32:00,09/27/2021,18:39:00,COMPLETED,,,1,N.Y. TRANSIT POLICE,344,MISDEMEANOR,,ASSAULT 3 & RELATED OFFENSES,,PATROL BORO MAN SOUTH,101,ASSAULT 3,TRANSIT - NYC SUBWAY,09/27/2021,42 ST.-TIMES SQUARE,18-24,WHITE HISPANIC,M,1,<18,WHITE HISPANIC,F,987866,214721,40.75604354,-73.98694954,"(40.75604353500006, -73.98694954399997)",POINT (-73.98694954399997 40.75604353500006),TIMES SQ-42 ST,1237NQRSW,4.57076852010425e-08
17,703845187,72,BROOKLYN,09/23/2021,22:00:00,09/24/2021,3:00:00,COMPLETED,,,1,N.Y. TRANSIT POLICE,121,FELONY,,CRIMINAL MISCHIEF & RELATED OF,,PATROL BORO BKLYN SOUTH,269,"MISCHIEF,CRIMINAL,    UNCL 2ND",TRANSIT - NYC SUBWAY,09/24/2021,15 ST.-PROSPECT PARK,UNKNOWN,UNKNOWN,U,30,UNKNOWN,UNKNOWN,D,989916,180044,40.6608623,-73.97957927,"(40.66086229600006, -73.97957927099996)",POINT (-73.97957927099996 40.66086229600006),15 ST-PROSPECT,FG,5.3064759689692e-07
18,500834789,19,MANHATTAN,09/28/2021,16:28:00,09/28/2021,16:35:00,COMPLETED,,,1,N.Y. TRANSIT POLICE,351,MISDEMEANOR,,CRIMINAL MISCHIEF & RELATED OF,,PATROL BORO MAN NORTH,258,"CRIMINAL MISCHIEF 4TH, GRAFFIT",TRANSIT - NYC SUBWAY,09/28/2021,86 STREET,25-44,WHITE,M,4,UNKNOWN,UNKNOWN,E,996551,223272,40.779506,-73.9555855,"(40.77950599700006, -73.95558550399994)",POINT (-73.95558550399994 40.77950599700006),86 ST,456,1.9262312899988e-05
19,814493418,28,MANHATTAN,09/28/2021,12:10:00,09/28/2021,12:27:00,COMPLETED,,,1,N.Y. TRANSIT POLICE,235,MISDEMEANOR,,DANGEROUS DRUGS,,PATROL BORO MAN NORTH,511,"CONTROLLED SUBSTANCE, POSSESSI",TRANSIT - NYC SUBWAY,09/28/2021,125 STREET,25-44,BLACK,M,3,UNKNOWN,UNKNOWN,E,999342,233575,40.80778062,-73.94548473,"(40.807780622000045, -73.94548472699995)",POINT (-73.94548472699995 40.807780622000045),125 ST,ABCD,5.81139808171326e-05
20,846606686,72,BROOKLYN,09/29/2021,14:15:00,,,COMPLETED,,,1,N.Y. TRANSIT POLICE,578,VIOLATION,,HARRASSMENT 2,,PATROL BORO BKLYN SOUTH,638,"HARASSMENT,SUBD 3,4,5",TRANSIT - NYC SUBWAY,09/29/2021,53 STREET,UNKNOWN,UNKNOWN,M,34,25-44,ASIAN / PACIFIC ISLANDER,F,980275,174191,40.644798,-74.01432523,"(40.64479800400005, -74.01432523199998)",POINT (-74.01432523199998 40.64479800400005),53 ST,R,7.9860530901356e-08
21,826980987,84,BROOKLYN,09/23/2021,17:15:00,09/23/2021,17:20:00,COMPLETED,,,1,N.Y. TRANSIT POLICE,351,MISDEMEANOR,,CRIMINAL MISCHIEF & RELATED OF,,PATROL BORO BKLYN NORTH,258,"CRIMINAL MISCHIEF 4TH, GRAFFIT",TRANSIT - NYC SUBWAY,09/28/2021,COURT STREET,UNKNOWN,UNKNOWN,U,30,UNKNOWN,UNKNOWN,E,986351,192220,40.69428423,-73.99242494,"(40.69428423400007, -73.99242493799993)",POINT (-73.99242493799993 40.69428423400007),BOROUGH HALL,2345R,6.74817959054754e-06
22,528947806,41,BRONX,09/30/2021,13:15:00,09/30/2021,13:25:00,COMPLETED,,,1,N.Y. TRANSIT POLICE,578,VIOLATION,,HARRASSMENT 2,,PATROL BORO BRONX,638,"HARASSMENT,SUBD 3,4,5",TRANSIT - NYC SUBWAY,09/30/2021,HUNTS POINT AVENUE,25-44,BLACK,M,12,45-64,BLACK,F,1014509,238113,40.82019723,-73.89067667,"(40.820197232000055, -73.89067666599993)",POINT (-73.89067666599993 40.820197232000055),HUNTS POINT AV,6,4.09638381803233e-07
23,147941539,72,BROOKLYN,09/29/2021,22:35:00,09/29/2021,22:40:00,COMPLETED,,,1,N.Y. TRANSIT POLICE,105,FELONY,,ROBBERY,,PATROL BORO BKLYN SOUTH,386,"ROBBERY,PERSONAL ELECTRONIC DEVICE",TRANSIT - NYC SUBWAY,09/30/2021,45 STREET,25-44,WHITE,M,34,45-64,ASIAN / PACIFIC ISLANDER,M,981568,175823,40.64927798,-74.00966659,"(40.64927797800004, -74.00966659499993)",POINT (-74.00966659499993 40.64927797800004),45 ST,R,1.25490685003316e-08
24,816267517,14,MANHATTAN,09/28/2021,17:00:00,09/28/2021,17:03:00,COMPLETED,,,1,N.Y. TRANSIT POLICE,109,FELONY,,GRAND LARCENY,,PATROL BORO MAN SOUTH,404,"LARCENY,GRAND FROM PERSON,PERSONAL ELECTRONIC DEVICE(SNATCH)",TRANSIT - NYC SUBWAY,09/28/2021,34 ST.-HERALD SQ.,,,,2,25-44,ASIAN / PACIFIC ISLANDER,M,987639,212445,40.74979658,-73.98777004,"(40.749796581000055, -73.98777004399994)",POINT (-73.98777004399994 40.749796581000055),34 ST-HERALD SQ,BDFMNQRW,2.11706143991999e-07
25,281213075,73,BROOKLYN,09/25/2021,3:10:00,09/25/2021,3:15:00,COMPLETED,,,1,N.Y. TRANSIT POLICE,106,FELONY,,FELONY ASSAULT,,PATROL BORO BKLYN NORTH,106,ASSAULT POLICE/PEACE OFFICER,TRANSIT - NYC SUBWAY,09/25/2021,BROADWAY-EAST NEW YORK,18-24,BLACK,F,33,25-44,WHITE,M,1010287,186518,40.67859551,-73.90613036,"(40.67859550700007, -73.90613035499997)",POINT (-73.90613035499997 40.67859550700007),BROADWAY JCT,ACJLZ,4.68550045573496e-06
26,359940663,33,MANHATTAN,09/29/2021,9:46:00,09/29/2021,9:48:00,COMPLETED,,,1,N.Y. TRANSIT POLICE,233,MISDEMEANOR,,SEX CRIMES,,PATROL BORO MAN NORTH,175,"SEXUAL ABUSE 3,2",TRANSIT - NYC SUBWAY,09/29/2021,175 STREET,18-24,BLACK,M,3,45-64,WHITE HISPANIC,F,1001936,245282,40.8399082,-73.93608359,"(40.83990820100007, -73.93608358699998)",POINT (-73.93608358699998 40.83990820100007),168 ST,1AC,1.344445238211e-05
27,876176169,14,MANHATTAN,09/25/2021,2:30:00,09/25/2021,2:37:00,COMPLETED,,,1,N.Y. TRANSIT POLICE,105,FELONY,,ROBBERY,,PATROL BORO MAN SOUTH,398,"ROBBERY,PUBLIC PLACE INSIDE",TRANSIT - NYC SUBWAY,09/25/2021,33 STREET,18-24,BLACK HISPANIC,M,4,18-24,BLACK HISPANIC,M,989284,211217,40.74642525,-73.98183391,"(40.74642524500007, -73.98183391399994)",POINT (-73.98183391399994 40.74642524500007),33 ST,6,8.94583586000976e-08
28,702767248,18,MANHATTAN,09/27/2021,14:40:00,09/27/2021,14:53:00,COMPLETED,,,1,N.Y. TRANSIT POLICE,344,MISDEMEANOR,,ASSAULT 3 & RELATED OFFENSES,,PATROL BORO MAN SOUTH,101,ASSAULT 3,TRANSIT - NYC SUBWAY,09/27/2021,47-50 STS./ROCKEFELLER CTR.,18-24,WHITE HISPANIC,F,1,<18,WHITE HISPANIC,F,989294,215445,40.75803003,-73.98179465,"(40.75803003100003, -73.98179465299995)",POINT (-73.98179465299995 40.75803003100003),47-50 STS ROCK,BDFM,1.0426839033805e-06
29,267868935,77,BROOKLYN,09/23/2021,18:23:00,09/23/2021,18:35:00,COMPLETED,,,1,N.Y. TRANSIT POLICE,351,MISDEMEANOR,,CRIMINAL MISCHIEF & RELATED OF,,PATROL BORO BKLYN NORTH,259,"CRIMINAL MISCHIEF,UNCLASSIFIED 4",TRANSIT - NYC SUBWAY,09/23/2021,UTICA AVE.-CROWN HEIGHTS,,,,32,UNKNOWN,UNKNOWN,D,1003358,182945,40.66880609,-73.93112157,"(40.66880609300006, -73.93112156699993)",POINT (-73.93112156699993 40.66880609300006),CROWN HTS-UTICA,34,5.40290836998416e-07
30,141081443,14,MANHATTAN,09/26/2021,0:30:00,09/26/2021,4:55:00,COMPLETED,,,1,N.Y. TRANSIT POLICE,109,FELONY,,GRAND LARCENY,,PATROL BORO MAN SOUTH,408,"LARCENY,GRAND FROM PERSON,LUSH WORKER(SLEEPING/UNCON VICTIM)",TRANSIT - NYC SUBWAY,09/26/2021,42 ST.-GRAND CENTRAL,UNKNOWN,UNKNOWN,U,4,45-64,ASIAN / PACIFIC ISLANDER,M,990886,213048,40.75144982,-73.97605055,"(40.751449824000076, -73.97605054499998)",POINT (-73.97605054499998 40.751449824000076),GRD CNTRL-42 ST,4567S,3.10142156292679e-06
31,335231248,44,BRONX,09/25/2021,22:38:00,09/25/2021,23:15:00,COMPLETED,,,1,N.Y. TRANSIT POLICE,344,MISDEMEANOR,,ASSAULT 3 & RELATED OFFENSES,,PATROL BORO BRONX,101,ASSAULT 3,TRANSIT - NYC SUBWAY,09/25/2021,161 ST.-YANKEE STADIUM,UNKNOWN,UNKNOWN,U,11,25-44,WHITE,F,1004749,240880,40.8278199,-73.92593076,"(40.827819901000055, -73.92593075599996)",POINT (-73.92593075599996 40.827819901000055),161/YANKEE STAD,4BD,1.75402177599273e-07
32,168406964,14,MANHATTAN,09/30/2021,9:30:00,09/30/2021,9:35:00,COMPLETED,,,1,N.Y. TRANSIT POLICE,109,FELONY,,GRAND LARCENY,,PATROL BORO MAN SOUTH,408,"LARCENY,GRAND FROM PERSON,LUSH WORKER(SLEEPING/UNCON VICTIM)",TRANSIT - NYC SUBWAY,09/30/2021,42 ST.-TIMES SQUARE,45-64,BLACK,M,1,25-44,BLACK,M,987866,214721,40.75604354,-73.98694954,"(40.75604353500006, -73.98694954399997)",POINT (-73.98694954399997 40.75604353500006),TIMES SQ-42 ST,1237NQRSW,4.57076852010425e-08
33,666729779,33,MANHATTAN,09/29/2021,20:30:00,09/29/2021,20:35:00,COMPLETED,,,1,N.Y. TRANSIT POLICE,109,FELONY,,GRAND LARCENY,,PATROL BORO MAN NORTH,439,"LARCENY,GRAND FROM OPEN AREAS, UNATTENDED",TRANSIT - NYC SUBWAY,09/30/2021,168 ST.-WASHINGTON HTS.,UNKNOWN,UNKNOWN,U,3,25-44,ASIAN / PACIFIC ISLANDER,M,1000998,245665,40.84096125,-73.9394726,"(40.840961253000046, -73.93947259699996)",POINT (-73.93947259699996 40.840961253000046),168 ST,1AC,3.92127124982091e-08
34,827974673,10,MANHATTAN,09/27/2021,12:30:00,09/27/2021,12:34:00,COMPLETED,,,1,N.Y. TRANSIT POLICE,344,MISDEMEANOR,,ASSAULT 3 & RELATED OFFENSES,,PATROL BORO MAN SOUTH,101,ASSAULT 3,TRANSIT - NYC SUBWAY,09/27/2021,23 STREET,UNKNOWN,BLACK,M,2,25-44,WHITE,F,985457,210372,40.74410728,-73.99564558,"(40.744107281000026, -73.99564557899998)",POINT (-73.99564557899998 40.744107281000026),28 ST,1,1.3333535646827e-05
35,520295636,46,BRONX,09/24/2021,11:04:00,09/24/2021,11:20:00,COMPLETED,,,1,N.Y. TRANSIT POLICE,236,MISDEMEANOR,,DANGEROUS WEAPONS,,PATROL BORO BRONX,782,"WEAPONS, POSSESSION, ETC",TRANSIT - NYC SUBWAY,09/24/2021,BURNSIDE AVENUE,25-44,WHITE,M,11,UNKNOWN,UNKNOWN,E,1009886,250359,40.85382357,-73.9073326,"(40.85382356700006, -73.90733259799998)",POINT (-73.90733259799998 40.85382356700006),BURNSIDE AV,4,2.59325804914269e-07
36,627831202,77,BROOKLYN,09/28/2021,8:14:00,09/28/2021,8:20:00,COMPLETED,,,1,N.Y. TRANSIT POLICE,351,MISDEMEANOR,,CRIMINAL MISCHIEF & RELATED OF,,PATROL BORO BKLYN NORTH,258,"CRIMINAL MISCHIEF 4TH, GRAFFIT",TRANSIT - NYC SUBWAY,09/28/2021,UTICA AVE.-CROWN HEIGHTS,UNKNOWN,UNKNOWN,U,32,UNKNOWN,UNKNOWN,D,1003358,182945,40.66880609,-73.93112157,"(40.66880609300006, -73.93112156699993)",POINT (-73.93112156699993 40.66880609300006),CROWN HTS-UTICA,34,5.40290836998416e-07
37,499513333,52,BRONX,09/29/2021,12:03:00,09/29/2021,12:07:00,COMPLETED,,,1,N.Y. TRANSIT POLICE,235,MISDEMEANOR,,DANGEROUS DRUGS,,PATROL BORO BRONX,511,"CONTROLLED SUBSTANCE, POSSESSI",TRANSIT - NYC SUBWAY,09/29/2021,KINGSBRIDGE ROAD,25-44,BLACK,M,11,UNKNOWN,UNKNOWN,E,1013463,254828,40.86607851,-73.89438301,"(40.86607851200006, -73.89438301399997)",POINT (-73.89438301399997 40.86607851200006),KINGSBRIDGE RD,4,2.10660080196176e-07
38,986857425,52,BRONX,09/23/2021,13:57:00,09/23/2021,13:59:00,COMPLETED,,,1,N.Y. TRANSIT POLICE,343,MISDEMEANOR,,THEFT OF SERVICES,,PATROL BORO BRONX,475,UNAUTH. SALE OF TRANS. SERVICE,TRANSIT - NYC SUBWAY,09/23/2021,183 STREET,45-64,BLACK,M,11,UNKNOWN,UNKNOWN,E,1010831,252019,40.85837698,-73.90391004,"(40.858376975000056, -73.90391003799994)",POINT (-73.90391003799994 40.858376975000056),183 ST,4,1.40039999291161e-11
39,972889665,44,BRONX,09/29/2021,23:00:00,09/29/2021,23:30:00,COMPLETED,,,1,N.Y. TRANSIT POLICE,109,FELONY,,GRAND LARCENY,,PATROL BORO BRONX,439,"LARCENY,GRAND FROM OPEN AREAS, UNATTENDED",TRANSIT - NYC SUBWAY,09/30/2021,170 STREET,UNKNOWN,UNKNOWN,U,11,45-64,BLACK,M,1007027,245405,40.84023414,-73.91768411,"(40.84023413800003, -73.91768411399994)",POINT (-73.91768411399994 40.84023413800003),170 ST,4,7.45488496978248e-08
40,423854907,10,MANHATTAN,09/25/2021,20:25:00,09/25/2021,20:32:00,COMPLETED,,,1,N.Y. TRANSIT POLICE,578,VIOLATION,,HARRASSMENT 2,,PATROL BORO MAN SOUTH,637,"HARASSMENT,SUBD 1,CIVILIAN",TRANSIT - NYC SUBWAY,09/25/2021,23 STREET,25-44,BLACK,F,2,25-44,BLACK,M,985457,210372,40.74410728,-73.99564558,"(40.744107281000026, -73.99564557899998)",POINT (-73.99564557899998 40.744107281000026),28 ST,1,1.3333535646827e-05
41,971109844,48,BRONX,09/26/2021,7:00:00,09/26/2021,10:51:00,COMPLETED,,,1,N.Y. TRANSIT POLICE,109,FELONY,,GRAND LARCENY,,PATROL BORO BRONX,408,"LARCENY,GRAND FROM PERSON,LUSH WORKER(SLEEPING/UNCON VICTIM)",TRANSIT - NYC SUBWAY,09/26/2021,EAST TREMONT AVE.-WEST FARMS S,UNKNOWN,UNKNOWN,U,12,18-24,BLACK,M,1017426,245419,40.84023962,-73.88010152,"(40.840239620000034, -73.88010152199998)",POINT (-73.88010152199998 40.840239620000034),WEST FARMS SQ,25,3.10546862803401e-07
42,288363966,84,BROOKLYN,09/25/2021,19:55:00,09/25/2021,20:05:00,COMPLETED,,,1,N.Y. TRANSIT POLICE,109,FELONY,,GRAND LARCENY,,PATROL BORO BKLYN NORTH,404,"LARCENY,GRAND FROM PERSON,PERSONAL ELECTRONIC DEVICE(SNATCH)",TRANSIT - NYC SUBWAY,09/25/2021,JAY STREET-BOROUGH HALL,UNKNOWN,BLACK,M,30,18-24,BLACK,M,987772,191476,40.69224167,-73.987301,"(40.69224167400005, -73.987300996)",POINT (-73.987300996 40.69224167400005),JAY ST-METROTEC,ACF,1.2779056899577e-08
43,983871610,32,MANHATTAN,09/26/2021,19:00:00,09/26/2021,19:30:00,COMPLETED,,,1,N.Y. TRANSIT POLICE,351,MISDEMEANOR,,CRIMINAL MISCHIEF & RELATED OF,,PATROL BORO MAN NORTH,258,"CRIMINAL MISCHIEF 4TH, GRAFFIT",TRANSIT - NYC SUBWAY,09/26/2021,135 STREET,UNKNOWN,UNKNOWN,U,3,UNKNOWN,UNKNOWN,D,1000622,235883,40.81411316,-73.94085536,"(40.81411316100008, -73.94085536499993)",POINT (-73.94085536499993 40.81411316100008),135 ST,23,9.43875200099435e-10
44,196375239,73,BROOKLYN,09/25/2021,3:10:00,09/25/2021,3:15:00,COMPLETED,,,1,N.Y. TRANSIT POLICE,233,MISDEMEANOR,,SEX CRIMES,,PATROL BORO BKLYN NORTH,175,"SEXUAL ABUSE 3,2",TRANSIT - NYC SUBWAY,09/25/2021,BROADWAY-EAST NEW YORK,45-64,WHITE HISPANIC,M,33,18-24,BLACK,F,1008276,183623,40.67065507,-73.91339092,"(40.670655072000045, -73.91339091999998)",POINT (-73.91339091999998 40.670655072000045),ROCKAWAY AV,C,6.82756940232532e-05
45,147949751,52,BRONX,09/25/2021,15:30:00,09/25/2021,15:49:00,COMPLETED,,,1,N.Y. TRANSIT POLICE,351,MISDEMEANOR,,CRIMINAL MISCHIEF & RELATED OF,,PATROL BORO BRONX,259,"CRIMINAL MISCHIEF,UNCLASSIFIED 4",TRANSIT - NYC SUBWAY,09/25/2021,WOODLAWN,UNKNOWN,UNKNOWN,U,11,UNKNOWN,UNKNOWN,D,1017983,262622,40.8874545,-73.87800191,"(40.88745450300007, -73.87800190799999)",POINT (-73.87800190799999 40.88745450300007),WOODLAWN,4,3.32883664094034e-07
46,790227545,10,MANHATTAN,09/28/2021,15:00:00,09/28/2021,20:40:00,COMPLETED,,,1,N.Y. TRANSIT POLICE,351,MISDEMEANOR,,CRIMINAL MISCHIEF & RELATED OF,,PATROL BORO MAN SOUTH,258,"CRIMINAL MISCHIEF 4TH, GRAFFIT",TRANSIT - NYC SUBWAY,09/28/2021,28 STREET,UNKNOWN,UNKNOWN,U,2,UNKNOWN,UNKNOWN,D,986090,211515,40.74724442,-73.99336087,"(40.747244422000044, -73.99336086999993)",POINT (-73.99336086999993 40.747244422000044),28 ST,1,5.29144612972351e-08
47,555632518,17,MANHATTAN,09/29/2021,13:45:00,09/29/2021,13:46:00,COMPLETED,,,1,N.Y. TRANSIT POLICE,106,FELONY,,FELONY ASSAULT,,PATROL BORO MAN SOUTH,109,"ASSAULT 2,1,UNCLASSIFIED",TRANSIT - NYC SUBWAY,09/29/2021,LEXINGTON AVENUE,25-44,BLACK,M,4,45-64,ASIAN / PACIFIC ISLANDER,F,992286,215574,40.75838189,-73.97099459,"(40.758381891000056, -73.97099459299993)",POINT (-73.97099459299993 40.758381891000056),51 ST,6,2.3961923081951e-06
48,457987466,44,BRONX,09/25/2021,12:17:00,09/25/2021,12:18:00,COMPLETED,,,1,N.Y. TRANSIT POLICE,344,MISDEMEANOR,,ASSAULT 3 & RELATED OFFENSES,,PATROL BORO BRONX,101,ASSAULT 3,TRANSIT - NYC SUBWAY,09/25/2021,161 ST.-YANKEE STADIUM,25-44,BLACK,M,11,25-44,BLACK,M,1004749,240880,40.8278199,-73.92593076,"(40.827819901000055, -73.92593075599996)",POINT (-73.92593075599996 40.827819901000055),161/YANKEE STAD,4BD,1.75402177599273e-07
49,403664110,107,QUEENS,09/29/2021,12:50:00,09/29/2021,13:00:00,COMPLETED,,,1,N.Y. TRANSIT POLICE,344,MISDEMEANOR,,ASSAULT 3 & RELATED OFFENSES,,PATROL BORO QUEENS SOUTH,101,ASSAULT 3,TRANSIT - NYC SUBWAY,09/29/2021,PARSONS BLVD.,25-44,BLACK,M,20,45-64,BLACK,M,1038927,197178,40.70772411,-73.80278842,"(40.70772410500007, -73.80278841599994)",POINT (-73.80278841599994 40.70772410500007),PARSONS BLVD,F,1.35395649995508e-09
50,958899213,14,MANHATTAN,09/26/2021,13:40:00,09/26/2021,14:00:00,COMPLETED,,,1,N.Y. TRANSIT POLICE,344,MISDEMEANOR,,ASSAULT 3 & RELATED OFFENSES,,PATROL BORO MAN SOUTH,101,ASSAULT 3,TRANSIT - NYC SUBWAY,09/27/2021,34 ST.-PENN STATION,25-44,WHITE HISPANIC,M,2,45-64,WHITE HISPANIC,M,986848,212883,40.75099905,-73.99062471,"(40.75099904800004, -73.99062471199994)",POINT (-73.99062471199994 40.75099904800004),34 ST-HERALD SQ,BDFMNQRW,7.07057286666743e-06
51,981990745,13,MANHATTAN,09/29/2021,17:20:00,,,COMPLETED,,,1,N.Y. TRANSIT POLICE,235,MISDEMEANOR,,DANGEROUS DRUGS,,PATROL BORO MAN SOUTH,511,"CONTROLLED SUBSTANCE, POSSESSI",TRANSIT - NYC SUBWAY,09/29/2021,DISTRICT 4 OFFICE,25-44,BLACK,M,4,UNKNOWN,UNKNOWN,E,986546,207135,40.7352223,-73.99171665,"(40.73522230400005, -73.99171665499993)",POINT (-73.99171665499993 40.73522230400005),14 ST-UNION SQ,456LNQRW,2.41036596245526e-06
52,250990433,30,MANHATTAN,09/26/2021,10:45:00,09/26/2021,11:00:00,COMPLETED,,,1,N.Y. TRANSIT POLICE,351,MISDEMEANOR,,CRIMINAL MISCHIEF & RELATED OF,,PATROL BORO MAN NORTH,258,"CRIMINAL MISCHIEF 4TH, GRAFFIT",TRANSIT - NYC SUBWAY,09/26/2021,155 STREET,,,,3,UNKNOWN,UNKNOWN,D,999790,241169,40.82862324,-73.94384884,"(40.82862324000007, -73.94384883699998)",POINT (-73.94384883699998 40.82862324000007),155 ST,C,1.13443282592322e-05
53,576931343,108,QUEENS,09/22/2021,15:45:00,09/22/2021,16:15:00,COMPLETED,,,1,N.Y. TRANSIT POLICE,344,MISDEMEANOR,,ASSAULT 3 & RELATED OFFENSES,,PATROL BORO QUEENS NORTH,101,ASSAULT 3,TRANSIT - NYC SUBWAY,09/23/2021,COURT SQUARE,<18,BLACK,M,20,<18,BLACK,M,996424,210017,40.7431246,-73.95606807,"(40.743124599000055, -73.95606807299998)",POINT (-73.95606807299998 40.743124599000055),JACKSON AV,25,5.69639518289044e-06
54,741530634,108,QUEENS,09/28/2021,17:55:00,09/28/2021,18:05:00,COMPLETED,,,1,N.Y. TRANSIT POLICE,106,FELONY,,FELONY ASSAULT,,PATROL BORO QUEENS NORTH,109,"ASSAULT 2,1,UNCLASSIFIED",TRANSIT - NYC SUBWAY,09/28/2021,QUEENS PLAZA,25-44,BLACK,M,20,45-64,BLACK,F,1001596,212133,40.74892386,-73.93739797,"(40.74892385700008, -73.93739797299997)",POINT (-73.93739797299997 40.74892385700008),QUEENS PLAZA,EMR,7.62669049926756e-09
55,969460066,6,MANHATTAN,09/26/2021,23:30:00,09/26/2021,23:45:00,COMPLETED,,,1,N.Y. TRANSIT POLICE,106,FELONY,,FELONY ASSAULT,,PATROL BORO MAN SOUTH,109,"ASSAULT 2,1,UNCLASSIFIED",TRANSIT - NYC SUBWAY,09/27/2021,W. 4 STREET,25-44,BLACK,M,2,25-44,BLACK,M,983985,205857,40.7317148,-74.00095761,"(40.731714801000074, -74.00095761299998)",POINT (-74.00095761299998 40.731714801000074),W 4 ST-WASH SQ,ABCDEFM,4.31912386092433e-07
56,307249180,84,BROOKLYN,09/23/2021,8:30:00,09/23/2021,8:35:00,COMPLETED,,,1,N.Y. TRANSIT POLICE,344,MISDEMEANOR,,ASSAULT 3 & RELATED OFFENSES,,PATROL BORO BKLYN NORTH,101,ASSAULT 3,TRANSIT - NYC SUBWAY,09/23/2021,PACIFIC STREET,UNKNOWN,BLACK,F,32,25-44,WHITE HISPANIC,F,990141,188391,40.6837728,-73.978761,"(40.68377279600002, -73.97876100199994)",POINT (-73.97876100199994 40.68377279600002),ATL AV-BARCLAY,2345BDNQR,1.81960000168605e-10
57,160643182,24,MANHATTAN,09/24/2021,22:00:00,09/26/2021,5:26:00,COMPLETED,,,1,N.Y. TRANSIT POLICE,121,FELONY,,CRIMINAL MISCHIEF & RELATED OF,,PATROL BORO MAN NORTH,268,CRIMINAL MIS 2 & 3,TRANSIT - NYC SUBWAY,09/28/2021,103 STREET,,,,3,UNKNOWN,UNKNOWN,D,992960,230413,40.79911039,-73.96854248,"(40.79911039400002, -73.96854247999994)",POINT (-73.96854247999994 40.79911039400002),CATHEDRAL PKWY,1,2.905495872044e-05
58,578576161,44,BRONX,09/22/2021,23:35:00,09/22/2021,23:44:00,COMPLETED,,,1,N.Y. TRANSIT POLICE,359,MISDEMEANOR,,OFFENSES AGAINST PUBLIC ADMINI,,PATROL BORO BRONX,759,"PUBLIC ADMINISTATION,UNCLASS M",TRANSIT - NYC SUBWAY,09/22/2021,161 ST.-YANKEE STADIUM,25-44,BLACK HISPANIC,M,11,UNKNOWN,UNKNOWN,E,1004749,240880,40.8278199,-73.92593076,"(40.827819901000055, -73.92593075599996)",POINT (-73.92593075599996 40.827819901000055),161/YANKEE STAD,4BD,1.75402177599273e-07
59,272674791,109,QUEENS,09/25/2021,5:00:00,09/25/2021,8:00:00,COMPLETED,,,1,N.Y. TRANSIT POLICE,109,FELONY,,GRAND LARCENY,,PATROL BORO QUEENS NORTH,408,"LARCENY,GRAND FROM PERSON,LUSH WORKER(SLEEPING/UNCON VICTIM)",TRANSIT - NYC SUBWAY,09/26/2021,MAIN ST.-FLUSHING,UNKNOWN,UNKNOWN,U,20,25-44,WHITE HISPANIC,M,1031307,216054,40.7595778,-73.8301407,"(40.759577798000066, -73.83014069999997)",POINT (-73.83014069999997 40.759577798000066),FLUSHING-MAIN,7,4.81701200048039e-08
60,833814537,42,BRONX,09/29/2021,10:30:00,09/29/2021,10:45:00,COMPLETED,,,1,N.Y. TRANSIT POLICE,105,FELONY,,ROBBERY,,PATROL BORO BRONX,386,"ROBBERY,PERSONAL ELECTRONIC DEVICE",TRANSIT - NYC SUBWAY,09/29/2021,EAST 174 STREET,18-24,BLACK,M,12,<18,WHITE HISPANIC,M,1015306,244374,40.83737911,-73.88776815,"(40.83737911100008, -73.88776815199996)",POINT (-73.88776815199996 40.83737911100008),174 ST,25,6.00027859936728e-09
61,283227189,75,BROOKLYN,09/23/2021,15:30:00,09/23/2021,15:45:00,COMPLETED,,,1,N.Y. TRANSIT POLICE,105,FELONY,,ROBBERY,,PATROL BORO BKLYN NORTH,386,"ROBBERY,PERSONAL ELECTRONIC DEVICE",TRANSIT - NYC SUBWAY,09/23/2021,CYPRESS HILLS,<18,UNKNOWN,M,33,<18,BLACK,M,1019822,190789,40.69028524,-73.87173135,"(40.69028523600008, -73.87173135399996)",POINT (-73.87173135399996 40.69028523600008),CYPRESS HILLS,J,7.90327300120866e-07
62,130284133,6,MANHATTAN,09/25/2021,16:50:00,09/25/2021,16:52:00,COMPLETED,,,1,N.Y. TRANSIT POLICE,578,VIOLATION,,HARRASSMENT 2,,PATROL BORO MAN SOUTH,637,"HARASSMENT,SUBD 1,CIVILIAN",TRANSIT - NYC SUBWAY,09/25/2021,W. 4 STREET,25-44,BLACK,M,2,25-44,BLACK,F,983985,205857,40.7317148,-74.00095761,"(40.731714801000074, -74.00095761299998)",POINT (-74.00095761299998 40.731714801000074),W 4 ST-WASH SQ,ABCDEFM,4.31912386092433e-07
63,270288435,24,MANHATTAN,09/24/2021,5:15:00,09/24/2021,5:35:00,COMPLETED,,,1,N.Y. TRANSIT POLICE,105,FELONY,,ROBBERY,,PATROL BORO MAN NORTH,398,"ROBBERY,PUBLIC PLACE INSIDE",TRANSIT - NYC SUBWAY,09/24/2021,103 STREET,25-44,BLACK,M,3,45-64,BLACK,M,994926,229324,40.79611923,-73.96144337,"(40.796119229000055, -73.96144336899994)",POINT (-73.96144336899994 40.796119229000055),103 ST,1,6.96523257991293e-08
64,957641948,84,BROOKLYN,09/25/2021,14:45:00,09/25/2021,14:50:00,COMPLETED,,,1,N.Y. TRANSIT POLICE,109,FELONY,,GRAND LARCENY,,PATROL BORO BKLYN NORTH,443,"LARCENY,GRAND OF BICYCLE",TRANSIT - NYC SUBWAY,09/25/2021,PACIFIC STREET,25-44,WHITE,M,32,45-64,BLACK HISPANIC,M,990141,188391,40.6837728,-73.978761,"(40.68377279600002, -73.97876100199994)",POINT (-73.97876100199994 40.68377279600002),ATL AV-BARCLAY,2345BDNQR,1.81960000168605e-10
65,200510294,14,MANHATTAN,09/26/2021,20:21:00,09/26/2021,21:10:00,COMPLETED,,,1,N.Y. TRANSIT POLICE,578,VIOLATION,,HARRASSMENT 2,,PATROL BORO MAN SOUTH,638,"HARASSMENT,SUBD 3,4,5",TRANSIT - NYC SUBWAY,09/26/2021,34 ST.-PENN STATION,25-44,WHITE HISPANIC,F,2,25-44,WHITE,M,986848,212883,40.75099905,-73.99062471,"(40.75099904800004, -73.99062471199994)",POINT (-73.99062471199994 40.75099904800004),34 ST-HERALD SQ,BDFMNQRW,7.07057286666743e-06
66,665848081,40,BRONX,09/22/2021,22:00:00,09/22/2021,23:00:00,COMPLETED,,,1,N.Y. TRANSIT POLICE,105,FELONY,,ROBBERY,,PATROL BORO BRONX,386,"ROBBERY,PERSONAL ELECTRONIC DEVICE",TRANSIT - NYC SUBWAY,09/23/2021,BROOK AVENUE,25-44,BLACK,M,12,45-64,WHITE HISPANIC,M,1006614,233501,40.8075621,-73.91921639,"(40.80756209800006, -73.91921639299993)",POINT (-73.91921639299993 40.80756209800006),BROOK AV,6,1.05849520992543e-08
67,571865774,30,MANHATTAN,09/29/2021,8:55:00,09/29/2021,9:04:00,COMPLETED,,,1,N.Y. TRANSIT POLICE,117,FELONY,,DANGEROUS DRUGS,,PATROL BORO MAN NORTH,505,"CONTROLLED SUBSTANCE, POSSESSI",TRANSIT - NYC SUBWAY,09/29/2021,145 STREET,25-44,BLACK,M,3,UNKNOWN,UNKNOWN,E,997963,240371,40.82643598,-73.95045219,"(40.82643598300007, -73.95045219299993)",POINT (-73.95045219299993 40.82643598300007),145 ST,ABCD,3.29627845013202e-08
68,392630470,52,BRONX,09/23/2021,13:00:00,09/23/2021,13:07:00,COMPLETED,,,1,N.Y. TRANSIT POLICE,113,FELONY,,FORGERY,,PATROL BORO BRONX,729,"FORGERY,ETC.,UNCLASSIFIED-FELO",TRANSIT - NYC SUBWAY,09/23/2021,KINGSBRIDGE ROAD,25-44,WHITE HISPANIC,M,11,UNKNOWN,UNKNOWN,E,1012627,255339,40.86748378,-73.89740337,"(40.86748377700008, -73.89740337199999)",POINT (-73.89740337199999 40.86748377700008),KINGSBRIDGE RD,4,1.34397294673353e-05
69,686396405,109,QUEENS,09/25/2021,3:00:00,09/25/2021,3:30:00,COMPLETED,,,1,N.Y. TRANSIT POLICE,109,FELONY,,GRAND LARCENY,,PATROL BORO QUEENS NORTH,408,"LARCENY,GRAND FROM PERSON,LUSH WORKER(SLEEPING/UNCON VICTIM)",TRANSIT - NYC SUBWAY,09/25/2021,MAIN ST.-FLUSHING,18-24,WHITE HISPANIC,M,20,25-44,WHITE HISPANIC,M,1031307,216054,40.7595778,-73.8301407,"(40.759577798000066, -73.83014069999997)",POINT (-73.83014069999997 40.759577798000066),FLUSHING-MAIN,7,4.81701200048039e-08
70,782994983,73,BROOKLYN,09/25/2021,3:10:00,09/25/2021,3:15:00,COMPLETED,,,1,N.Y. TRANSIT POLICE,106,FELONY,,FELONY ASSAULT,,PATROL BORO BKLYN NORTH,106,ASSAULT POLICE/PEACE OFFICER,TRANSIT - NYC SUBWAY,09/25/2021,BROADWAY-EAST NEW YORK,,,,33,25-44,WHITE,M,1010287,186518,40.67859551,-73.90613036,"(40.67859550700007, -73.90613035499997)",POINT (-73.90613035499997 40.67859550700007),BROADWAY JCT,ACJLZ,4.68550045573496e-06
71,209986272,77,BROOKLYN,09/28/2021,16:55:00,09/28/2021,17:10:00,COMPLETED,,,1,N.Y. TRANSIT POLICE,351,MISDEMEANOR,,CRIMINAL MISCHIEF & RELATED OF,,PATROL BORO BKLYN NORTH,258,"CRIMINAL MISCHIEF 4TH, GRAFFIT",TRANSIT - NYC SUBWAY,09/29/2021,UTICA AVE.-CROWN HEIGHTS,UNKNOWN,UNKNOWN,U,32,UNKNOWN,UNKNOWN,D,1003358,182945,40.66880609,-73.93112157,"(40.66880609300006, -73.93112156699993)",POINT (-73.93112156699993 40.66880609300006),CROWN HTS-UTICA,34,5.40290836998416e-07
72,587892555,5,MANHATTAN,09/26/2021,19:30:00,09/26/2021,19:35:00,COMPLETED,,,1,N.Y. TRANSIT POLICE,121,FELONY,,CRIMINAL MISCHIEF & RELATED OF,,PATROL BORO MAN SOUTH,268,CRIMINAL MIS 2 & 3,TRANSIT - NYC SUBWAY,09/28/2021,GRAND STREET,,,,4,UNKNOWN,UNKNOWN,D,985961,200916,40.71815279,-73.99382913,"(40.71815279100008, -73.99382912599998)",POINT (-73.99382912599998 40.71815279100008),GRAND ST,BD,6.75463489970558e-08
73,344109308,14,MANHATTAN,09/25/2021,16:50:00,09/25/2021,16:52:00,COMPLETED,,,1,N.Y. TRANSIT POLICE,235,MISDEMEANOR,,DANGEROUS DRUGS,,PATROL BORO MAN SOUTH,511,"CONTROLLED SUBSTANCE, POSSESSI",TRANSIT - NYC SUBWAY,09/25/2021,42 ST.-PORT AUTHORITY BUS TERM,45-64,BLACK,F,1,UNKNOWN,UNKNOWN,E,987341,215631,40.75854145,-73.98884411,"(40.75854145200003, -73.988844106)",POINT (-73.988844106 40.75854145200003),42 ST-PORT AUTH,ACE,5.7220709025819e-06
74,857582985,77,BROOKLYN,09/27/2021,14:43:00,09/27/2021,14:53:00,COMPLETED,,,1,N.Y. TRANSIT POLICE,578,VIOLATION,,HARRASSMENT 2,,PATROL BORO BKLYN NORTH,637,"HARASSMENT,SUBD 1,CIVILIAN",TRANSIT - NYC SUBWAY,09/27/2021,UTICA AVE.-CROWN HEIGHTS,25-44,BLACK,F,32,45-64,WHITE HISPANIC,F,1003358,182945,40.66880609,-73.93112157,"(40.66880609300006, -73.93112156699993)",POINT (-73.93112156699993 40.66880609300006),CROWN HTS-UTICA,34,5.40290836998416e-07
75,976221463,14,MANHATTAN,09/28/2021,19:25:00,09/28/2021,19:28:00,COMPLETED,,,1,N.Y. TRANSIT POLICE,343,MISDEMEANOR,,THEFT OF SERVICES,,PATROL BORO MAN SOUTH,475,UNAUTH. SALE OF TRANS. SERVICE,TRANSIT - NYC SUBWAY,09/28/2021,42 ST.-TIMES SQUARE,18-24,BLACK,M,1,UNKNOWN,UNKNOWN,E,987866,214721,40.75604354,-73.98694954,"(40.75604353500006, -73.98694954399997)",POINT (-73.98694954399997 40.75604353500006),TIMES SQ-42 ST,1237NQRSW,4.57076852010425e-08
76,579889995,46,BRONX,09/30/2021,12:22:00,09/30/2021,12:30:00,COMPLETED,,,1,N.Y. TRANSIT POLICE,105,FELONY,,ROBBERY,,PATROL BORO BRONX,397,"ROBBERY,OPEN AREA UNCLASSIFIED",TRANSIT - NYC SUBWAY,09/30/2021,BURNSIDE AVENUE,25-44,BLACK,M,11,45-64,WHITE HISPANIC,M,1009886,250359,40.85382357,-73.9073326,"(40.85382356700006, -73.90733259799998)",POINT (-73.90733259799998 40.85382356700006),BURNSIDE AV,4,2.59325804914269e-07
77,125729565,26,MANHATTAN,09/30/2021,14:20:00,09/30/2021,14:22:00,COMPLETED,,,1,N.Y. TRANSIT POLICE,358,MISDEMEANOR,,OFFENSES INVOLVING FRAUD,,PATROL BORO MAN NORTH,705,"FORGERY,ETC.-MISD.",TRANSIT - NYC SUBWAY,09/30/2021,125 STREET,,,,3,UNKNOWN,UNKNOWN,E,997374,234664,40.81077277,-73.95259159,"(40.81077276700007, -73.95259158999993)",POINT (-73.95259158999993 40.81077276700007),125 ST,1,2.78020999901851e-10
78,448808250,46,BRONX,09/30/2021,19:45:00,09/30/2021,20:00:00,COMPLETED,,,1,N.Y. TRANSIT POLICE,344,MISDEMEANOR,,ASSAULT 3 & RELATED OFFENSES,,PATROL BORO BRONX,101,ASSAULT 3,TRANSIT - NYC SUBWAY,09/30/2021,182-183 STREETS,25-44,WHITE HISPANIC,M,11,25-44,WHITE HISPANIC,M,1011698,251174,40.85605505,-73.90077926,"(40.856055051000055, -73.90077925899999)",POINT (-73.90077925899999 40.856055051000055),182-183 STS,BD,6.40907800996348e-08
79,435354026,6,MANHATTAN,09/29/2021,12:10:00,09/29/2021,12:15:00,COMPLETED,,,1,N.Y. TRANSIT POLICE,344,MISDEMEANOR,,ASSAULT 3 & RELATED OFFENSES,,PATROL BORO MAN SOUTH,113,"MENACING,UNCLASSIFIED",TRANSIT - NYC SUBWAY,09/29/2021,W. 4 STREET,UNKNOWN,BLACK,M,2,25-44,BLACK,F,983985,205857,40.7317148,-74.00095761,"(40.731714801000074, -74.00095761299998)",POINT (-74.00095761299998 40.731714801000074),W 4 ST-WASH SQ,ABCDEFM,4.31912386092433e-07
80,472915130,6,MANHATTAN,09/27/2021,19:15:00,09/27/2021,19:25:00,COMPLETED,,,1,N.Y. TRANSIT POLICE,109,FELONY,,GRAND LARCENY,,PATROL BORO MAN SOUTH,418,"LARCENY,GRAND BY ACQUIRING LOST CREDIT CARD",TRANSIT - NYC SUBWAY,09/27/2021,14 STREET,UNKNOWN,UNKNOWN,U,2,25-44,WHITE,M,985126,207917,40.73736896,-73.99684042,"(40.73736895500008, -73.99684042399997)",POINT (-73.99684042399997 40.73736895500008),6 AV,FM,3.55219999494383e-11
81,395795473,14,MANHATTAN,09/28/2021,19:30:00,09/28/2021,19:32:00,COMPLETED,,,1,N.Y. TRANSIT POLICE,343,MISDEMEANOR,,THEFT OF SERVICES,,PATROL BORO MAN SOUTH,475,UNAUTH. SALE OF TRANS. SERVICE,TRANSIT - NYC SUBWAY,09/28/2021,42 ST.-PORT AUTHORITY BUS TERM,25-44,BLACK HISPANIC,M,1,UNKNOWN,UNKNOWN,E,986819,214690,40.75595881,-73.99072869,"(40.755958814000046, -73.99072868799993)",POINT (-73.99072868799993 40.755958814000046),42 ST-PORT AUTH,ACE,7.21625904199381e-07
82,816554007,46,BRONX,09/25/2021,13:03:00,09/25/2021,13:16:00,COMPLETED,,,1,N.Y. TRANSIT POLICE,111,FELONY,,POSSESSION OF STOLEN PROPERTY,,PATROL BORO BRONX,494,"STOLEN PROPERTY 2,1,POSSESSION",TRANSIT - NYC SUBWAY,09/25/2021,TREMONT AVENUE,18-24,BLACK HISPANIC,M,11,UNKNOWN,UNKNOWN,E,1010256,248770,40.84946115,-73.90600129,"(40.84946115300004, -73.906001287)",POINT (-73.906001287 40.84946115300004),TREMONT AV,BD,1.30087331061086e-06
83,900427211,14,MANHATTAN,09/24/2021,9:05:00,09/24/2021,9:07:00,COMPLETED,,,1,N.Y. TRANSIT POLICE,235,MISDEMEANOR,,DANGEROUS DRUGS,,PATROL BORO MAN SOUTH,511,"CONTROLLED SUBSTANCE, POSSESSI",TRANSIT - NYC SUBWAY,09/24/2021,42 ST.-PORT AUTHORITY BUS TERM,25-44,WHITE HISPANIC,M,1,UNKNOWN,UNKNOWN,E,986819,214690,40.75595881,-73.99072869,"(40.755958814000046, -73.99072868799993)",POINT (-73.99072868799993 40.755958814000046),42 ST-PORT AUTH,ACE,7.21625904199381e-07
84,960746671,112,QUEENS,09/06/2021,22:00:00,09/07/2021,7:37:00,COMPLETED,,,1,N.Y. TRANSIT POLICE,121,FELONY,,CRIMINAL MISCHIEF & RELATED OF,,PATROL BORO QUEENS NORTH,268,CRIMINAL MIS 2 & 3,TRANSIT - NYC SUBWAY,09/29/2021,71 AVE.-FOREST HILLS,,,,20,UNKNOWN,UNKNOWN,D,1027498,202160,40.72146173,-73.84397927,"(40.721461728000065, -73.84397926999998)",POINT (-73.84397926999998 40.721461728000065),FOREST HILLS 71,EFMR,6.25217501788263e-07
85,881077713,45,BRONX,09/25/2021,4:10:00,09/25/2021,4:19:00,ATTEMPTED,,,1,N.Y. TRANSIT POLICE,105,FELONY,,ROBBERY,,PATROL BORO BRONX,398,"ROBBERY,PUBLIC PLACE INSIDE",TRANSIT - NYC SUBWAY,09/25/2021,PELHAM BAY PARK,25-44,BLACK,M,12,25-44,BLACK HISPANIC,M,1032091,241976,40.83072233,-73.82712606,"(40.83072232800004, -73.82712605899997)",POINT (-73.82712605899997 40.83072232800004),MIDDLETOWN RD,6,0.000255805029090506
86,555460259,20,MANHATTAN,09/28/2021,14:57:00,09/28/2021,15:00:00,COMPLETED,,,1,N.Y. TRANSIT POLICE,231,MISDEMEANOR,,BURGLAR'S TOOLS,,PATROL BORO MAN NORTH,209,"BURGLARS TOOLS,UNCLASSIFIED",TRANSIT - NYC SUBWAY,09/28/2021,66 ST.-LINCOLN CENTER,25-44,WHITE,M,1,UNKNOWN,UNKNOWN,E,989173,221221,40.77388373,-73.98222718,"(40.773883728000044, -73.98222718499993)",POINT (-73.98222718499993 40.773883728000044),66 ST-LINCOLN,1,3.47960653002337e-08
87,130769880,14,MANHATTAN,09/28/2021,18:20:00,09/28/2021,18:30:00,COMPLETED,,,1,N.Y. TRANSIT POLICE,109,FELONY,,GRAND LARCENY,,PATROL BORO MAN SOUTH,414,"LARCENY,GRAND PERSON,NECK CHAI",TRANSIT - NYC SUBWAY,09/28/2021,42 STREET,25-44,BLACK,M,1,18-24,WHITE HISPANIC,F,988650,214286,40.75484922,-73.98411999,"(40.754849215000036, -73.98411999099994)",POINT (-73.98411999099994 40.754849215000036),42 ST-BRYANT PK,BDFM,1.56536499946655e-10
88,539042568,107,QUEENS,09/29/2021,0:40:00,09/29/2021,1:30:00,COMPLETED,,,1,N.Y. TRANSIT POLICE,109,FELONY,,GRAND LARCENY,,PATROL BORO QUEENS SOUTH,439,"LARCENY,GRAND FROM OPEN AREAS, UNATTENDED",TRANSIT - NYC SUBWAY,09/29/2021,PARSONS BLVD.,UNKNOWN,UNKNOWN,U,20,25-44,BLACK,M,1038927,197178,40.70772411,-73.80278842,"(40.70772410500007, -73.80278841599994)",POINT (-73.80278841599994 40.70772410500007),PARSONS BLVD,F,1.35395649995508e-09
89,822766714,1,MANHATTAN,09/29/2021,7:59:00,09/29/2021,8:04:00,COMPLETED,,,1,N.Y. TRANSIT POLICE,344,MISDEMEANOR,,ASSAULT 3 & RELATED OFFENSES,,PATROL BORO MAN SOUTH,113,"MENACING,UNCLASSIFIED",TRANSIT - NYC SUBWAY,09/29/2021,BROADWAY/NASSAU,UNKNOWN,BLACK,M,2,18-24,BLACK HISPANIC,F,982103,198029,40.71022857,-74.00774569,"(40.71022856800005, -74.00774568899999)",POINT (-74.00774568899999 40.71022856800005),FULTON ST,2345ACJZ,1.26197166100948e-06
90,644719638,72,BROOKLYN,09/23/2021,8:00:00,09/23/2021,9:30:00,COMPLETED,,,1,N.Y. TRANSIT POLICE,578,VIOLATION,,HARRASSMENT 2,,PATROL BORO BKLYN SOUTH,638,"HARASSMENT,SUBD 3,4,5",TRANSIT - NYC SUBWAY,09/24/2021,45 STREET,45-64,WHITE,M,34,25-44,WHITE,M,981568,175823,40.64927798,-74.00966659,"(40.64927797800004, -74.00966659499993)",POINT (-74.00966659499993 40.64927797800004),45 ST,R,1.25490685003316e-08
91,275264288,18,MANHATTAN,09/24/2021,6:30:00,09/24/2021,6:45:00,COMPLETED,,,1,N.Y. TRANSIT POLICE,351,MISDEMEANOR,,CRIMINAL MISCHIEF & RELATED OF,,PATROL BORO MAN SOUTH,256,"MISCHIEF, CRIMINAL 4, BY FIRE",TRANSIT - NYC SUBWAY,09/30/2021,50 STREET,,,,1,UNKNOWN,UNKNOWN,E,988099,217000,40.76229871,-73.98610723,"(40.76229871000004, -73.98610722999997)",POINT (-73.98610722999997 40.76229871000004),50 ST,1,1.53364032999259e-07
92,668751045,30,MANHATTAN,09/29/2021,20:20:00,09/29/2021,20:25:00,ATTEMPTED,,,1,N.Y. TRANSIT POLICE,105,FELONY,,ROBBERY,,PATROL BORO MAN NORTH,384,"ROBBERY,POCKETBOOK/CARRIED BAG",TRANSIT - NYC SUBWAY,09/29/2021,137 ST.-CITY COLLEGE,18-24,WHITE HISPANIC,M,3,25-44,ASIAN / PACIFIC ISLANDER,F,996945,238532,40.82138997,-73.95413402,"(40.82138997100003, -73.95413401699994)",POINT (-73.95413401699994 40.82138997100003),137 ST CITY COL,1,2.98942129975402e-09
93,709002197,104,QUEENS,09/23/2021,1:28:00,09/23/2021,1:30:00,COMPLETED,,,1,N.Y. TRANSIT POLICE,116,FELONY,,SEX CRIMES,,PATROL BORO QUEENS NORTH,596,OBSCENE MATERIAL - UNDER 17 YE,TRANSIT - NYC SUBWAY,09/23/2021,MYRTLE/WYCKOFF AVENUES,18-24,ASIAN / PACIFIC ISLANDER,M,33,25-44,ASIAN / PACIFIC ISLANDER,F,1013764,195875,40.70426739,-73.89355376,"(40.70426739000004, -73.89355375999997)",POINT (-73.89355375999997 40.70426739000004),FRESH POND RD,M,9.54513408969413e-06
94,505448572,10,MANHATTAN,09/26/2021,5:50:00,09/26/2021,6:20:00,COMPLETED,,,1,N.Y. TRANSIT POLICE,341,MISDEMEANOR,,PETIT LARCENY,,PATROL BORO MAN SOUTH,339,"LARCENY,PETIT FROM OPEN AREAS,",TRANSIT - NYC SUBWAY,09/26/2021,WEST 34 STREET/HUDSON YARDS,UNKNOWN,UNKNOWN,U,1,45-64,BLACK,M,983700,214628,40.755789,-74.00198666,"(40.755788995000046, -74.00198665899995)",POINT (-74.00198665899995 40.755788995000046),34 ST-HUDSON YD,7,1.62562591759152e-06
95,315020400,77,BROOKLYN,09/24/2021,12:45:00,09/24/2021,12:57:00,COMPLETED,,,1,N.Y. TRANSIT POLICE,359,MISDEMEANOR,,OFFENSES AGAINST PUBLIC ADMINI,,PATROL BORO BKLYN NORTH,750,RESISTING ARREST,TRANSIT - NYC SUBWAY,09/24/2021,UTICA AVE.-CROWN HEIGHTS,25-44,BLACK,F,32,UNKNOWN,UNKNOWN,E,1003358,182945,40.66880609,-73.93112157,"(40.66880609300006, -73.93112156699993)",POINT (-73.93112156699993 40.66880609300006),CROWN HTS-UTICA,34,5.40290836998416e-07
96,562510854,9,MANHATTAN,09/26/2021,20:30:00,09/26/2021,20:35:00,COMPLETED,,,1,N.Y. TRANSIT POLICE,233,MISDEMEANOR,,SEX CRIMES,,PATROL BORO MAN SOUTH,175,"SEXUAL ABUSE 3,2",TRANSIT - NYC SUBWAY,09/27/2021,ASTOR PLACE,25-44,BLACK,M,4,25-44,WHITE,F,987624,203977,40.72655402,-73.98782843,"(40.72655401900005, -73.98782842699995)",POINT (-73.98782842699995 40.72655401900005),2 AV,F,1.89145775473435e-05
97,202067723,14,MANHATTAN,09/29/2021,17:52:00,09/29/2021,18:11:00,COMPLETED,,,1,N.Y. TRANSIT POLICE,358,MISDEMEANOR,,OFFENSES INVOLVING FRAUD,,PATROL BORO MAN SOUTH,705,"FORGERY,ETC.-MISD.",TRANSIT - NYC SUBWAY,09/29/2021,42 ST.-PORT AUTHORITY BUS TERM,,,,1,UNKNOWN,UNKNOWN,E,986819,214690,40.75595881,-73.99072869,"(40.755958814000046, -73.99072868799993)",POINT (-73.99072868799993 40.755958814000046),42 ST-PORT AUTH,ACE,7.21625904199381e-07
98,102323705,33,MANHATTAN,09/26/2021,2:30:00,,,COMPLETED,,,1,N.Y. TRANSIT POLICE,351,MISDEMEANOR,,CRIMINAL MISCHIEF & RELATED OF,,PATROL BORO MAN NORTH,259,"CRIMINAL MISCHIEF,UNCLASSIFIED 4",TRANSIT - NYC SUBWAY,09/26/2021,168 ST.-WASHINGTON HTS.,UNKNOWN,UNKNOWN,U,3,UNKNOWN,UNKNOWN,D,1000998,245665,40.84096125,-73.9394726,"(40.840961253000046, -73.93947259699996)",POINT (-73.93947259699996 40.840961253000046),168 ST,1AC,3.92127124982091e-08
99,217779725,84,BROOKLYN,09/25/2021,22:00:00,09/25/2021,23:30:00,COMPLETED,,,1,N.Y. TRANSIT POLICE,109,FELONY,,GRAND LARCENY,,PATROL BORO BKLYN NORTH,408,"LARCENY,GRAND FROM PERSON,LUSH WORKER(SLEEPING/UNCON VICTIM)",TRANSIT - NYC SUBWAY,09/27/2021,PACIFIC STREET,UNKNOWN,UNKNOWN,U,32,18-24,BLACK HISPANIC,M,990141,188391,40.6837728,-73.978761,"(40.68377279600002, -73.97876100199994)",POINT (-73.97876100199994 40.68377279600002),ATL AV-BARCLAY,2345BDNQR,1.81960000168605e-10
100,268321516,90,BROOKLYN,09/24/2021,3:50:00,09/24/2021,4:00:00,COMPLETED,,,1,N.Y. TRANSIT POLICE,351,MISDEMEANOR,,CRIMINAL MISCHIEF & RELATED OF,,PATROL BORO BKLYN NORTH,259,"CRIMINAL MISCHIEF,UNCLASSIFIED 4",TRANSIT - NYC SUBWAY,09/24/2021,MARCY AVENUE,25-44,BLACK,M,33,UNKNOWN,UNKNOWN,D,995921,197378,40.70843429,-73.95790521,"(40.70843429200004, -73.95790520999998)",POINT (-73.95790520999998 40.70843429200004),MARCY AV,JMZ,9.14020420225626e-09
101,404310639,1,MANHATTAN,09/28/2021,7:10:00,09/28/2021,7:12:00,COMPLETED,,,1,N.Y. TRANSIT POLICE,233,MISDEMEANOR,,SEX CRIMES,,PATROL BORO MAN SOUTH,175,"SEXUAL ABUSE 3,2",TRANSIT - NYC SUBWAY,09/28/2021,CHAMBERS ST.-WORLD TRADE CENTE,UNKNOWN,UNKNOWN,U,2,18-24,WHITE HISPANIC,F,982285,201682,40.72025522,-74.00709028,"(40.72025522300004, -74.00709027999993)",POINT (-74.00709027999993 40.72025522300004),FRANKLIN ST,1,1.74297590479196e-06
102,329763398,77,BROOKLYN,09/28/2021,20:46:00,09/28/2021,20:46:00,COMPLETED,,,1,N.Y. TRANSIT POLICE,351,MISDEMEANOR,,CRIMINAL MISCHIEF & RELATED OF,,PATROL BORO BKLYN NORTH,259,"CRIMINAL MISCHIEF,UNCLASSIFIED 4",TRANSIT - NYC SUBWAY,09/29/2021,UTICA AVE.-CROWN HEIGHTS,UNKNOWN,UNKNOWN,U,32,UNKNOWN,UNKNOWN,D,1003358,182945,40.66880609,-73.93112157,"(40.66880609300006, -73.93112156699993)",POINT (-73.93112156699993 40.66880609300006),CROWN HTS-UTICA,34,5.40290836998416e-07
103,202484641,26,MANHATTAN,09/15/2021,21:30:00,09/15/2021,22:00:00,COMPLETED,,,1,N.Y. TRANSIT POLICE,351,MISDEMEANOR,,CRIMINAL MISCHIEF & RELATED OF,,PATROL BORO MAN NORTH,258,"CRIMINAL MISCHIEF 4TH, GRAFFIT",TRANSIT - NYC SUBWAY,09/24/2021,125 STREET,,,,3,UNKNOWN,UNKNOWN,E,995794,236458,40.815699,-73.95829618,"(40.81569900300008, -73.95829618299997)",POINT (-73.95829618299997 40.81569900300008),137 ST CITY COL,1,4.94652088904505e-05
104,566885673,14,MANHATTAN,09/30/2021,15:42:00,,,COMPLETED,,,1,N.Y. TRANSIT POLICE,117,FELONY,,DANGEROUS DRUGS,,PATROL BORO MAN SOUTH,501,"CONTROLLED SUBSTANCE,POSSESS.",TRANSIT - NYC SUBWAY,09/30/2021,34 ST.-PENN STATION,45-64,WHITE HISPANIC,M,2,UNKNOWN,UNKNOWN,E,986848,212883,40.75099905,-73.99062471,"(40.75099904800004, -73.99062471199994)",POINT (-73.99062471199994 40.75099904800004),34 ST-HERALD SQ,BDFMNQRW,7.07057286666743e-06
105,113162293,73,BROOKLYN,09/19/2021,15:50:00,,,COMPLETED,,,1,N.Y. TRANSIT POLICE,109,FELONY,,GRAND LARCENY,,PATROL BORO BKLYN NORTH,404,"LARCENY,GRAND FROM PERSON,PERSONAL ELECTRONIC DEVICE(SNATCH)",TRANSIT - NYC SUBWAY,09/25/2021,ROCKAWAY AVENUE,UNKNOWN,BLACK,M,33,25-44,BLACK,M,1009004,186404,40.67828628,-73.91075636,"(40.678286283000034, -73.91075636499993)",POINT (-73.91075636499993 40.678286283000034),ROCKAWAY AV,C,4.25179779981356e-08
106,628783794,52,BRONX,09/27/2021,13:45:00,09/27/2021,13:51:00,COMPLETED,,,1,N.Y. TRANSIT POLICE,113,FELONY,,FORGERY,,PATROL BORO BRONX,729,"FORGERY,ETC.,UNCLASSIFIED-FELO",TRANSIT - NYC SUBWAY,09/27/2021,FORDHAM ROAD,25-44,WHITE HISPANIC,M,11,UNKNOWN,UNKNOWN,E,1011612,253618,40.86276336,-73.90108017,"(40.86276336100008, -73.90108016499995)",POINT (-73.90108016499995 40.86276336100008),FORDHAM RD,4,1.74016264986375e-08
107,123438041,84,BROOKLYN,09/29/2021,9:15:00,09/29/2021,10:00:00,COMPLETED,,,1,N.Y. TRANSIT POLICE,355,MISDEMEANOR,,OFFENSES AGAINST THE PERSON,,PATROL BORO BKLYN NORTH,115,RECKLESS ENDANGERMENT 2,TRANSIT - NYC SUBWAY,09/29/2021,PACIFIC STREET,UNKNOWN,BLACK,U,32,25-44,WHITE HISPANIC,F,990141,188391,40.6837728,-73.978761,"(40.68377279600002, -73.97876100199994)",POINT (-73.97876100199994 40.68377279600002),ATL AV-BARCLAY,2345BDNQR,1.81960000168605e-10
108,999675286,1,MANHATTAN,09/24/2021,5:11:00,09/24/2021,5:15:00,ATTEMPTED,,,1,N.Y. TRANSIT POLICE,105,FELONY,,ROBBERY,,PATROL BORO MAN SOUTH,397,"ROBBERY,OPEN AREA UNCLASSIFIED",TRANSIT - NYC SUBWAY,09/24/2021,BROAD STREET,45-64,WHITE HISPANIC,M,2,25-44,WHITE HISPANIC,M,981148,196593,40.7062868,-74.01118972,"(40.70628680300007, -74.01118971799998)",POINT (-74.01118971799998 40.70628680300007),BROAD ST,JZ,6.87924234404843e-07
109,692106972,72,BROOKLYN,09/28/2021,11:15:00,09/28/2021,11:19:00,COMPLETED,,,1,N.Y. TRANSIT POLICE,231,MISDEMEANOR,,BURGLAR'S TOOLS,,PATROL BORO BKLYN SOUTH,209,"BURGLARS TOOLS,UNCLASSIFIED",TRANSIT - NYC SUBWAY,09/28/2021,25 STREET,18-24,BLACK,M,32,UNKNOWN,UNKNOWN,E,984801,179904,40.66047982,-73.99801547,"(40.66047982200007, -73.99801546599997)",POINT (-73.99801546599997 40.66047982200007),25 ST,R,4.68058513002904e-08
110,283431582,6,MANHATTAN,09/30/2021,22:10:00,09/30/2021,22:20:00,COMPLETED,,,1,N.Y. TRANSIT POLICE,109,FELONY,,GRAND LARCENY,,PATROL BORO MAN SOUTH,439,"LARCENY,GRAND FROM OPEN AREAS, UNATTENDED",TRANSIT - NYC SUBWAY,09/30/2021,W. 4 STREET,UNKNOWN,UNKNOWN,U,2,25-44,ASIAN / PACIFIC ISLANDER,F,983985,205857,40.7317148,-74.00095761,"(40.731714801000074, -74.00095761299998)",POINT (-74.00095761299998 40.731714801000074),W 4 ST-WASH SQ,ABCDEFM,4.31912386092433e-07
111,714843644,18,MANHATTAN,09/24/2021,11:20:00,09/24/2021,11:35:00,COMPLETED,,,1,N.Y. TRANSIT POLICE,238,MISDEMEANOR,,FRAUDULENT ACCOSTING,,PATROL BORO MAN SOUTH,466,"ACCOSTING,FRAUDULENT",TRANSIT - NYC SUBWAY,09/27/2021,50 STREET,UNKNOWN,UNKNOWN,U,1,45-64,WHITE,M,988099,217000,40.76229871,-73.98610723,"(40.76229871000004, -73.98610722999997)",POINT (-73.98610722999997 40.76229871000004),50 ST,1,1.53364032999259e-07
112,280575897,112,,09/27/2021,2:45:00,09/27/2021,3:50:00,COMPLETED,,,1,N.Y. TRANSIT POLICE,109,FELONY,,GRAND LARCENY,,PATROL BORO QUEENS NORTH,408,"LARCENY,GRAND FROM PERSON,LUSH WORKER(SLEEPING/UNCON VICTIM)",TRANSIT - NYC SUBWAY,09/27/2021,71 AVE.-FOREST HILLS,UNKNOWN,UNKNOWN,U,20,25-44,BLACK HISPANIC,F,1025401,202586,40.722641,-73.85154182,"(40.722640996000045, -73.85154182199994)",POINT (-73.85154182199994 40.722640996000045),67 AV,MR,2.19589548403727e-05
113,124574032,72,BROOKLYN,09/24/2021,6:30:00,09/24/2021,6:35:00,COMPLETED,,,1,N.Y. TRANSIT POLICE,121,FELONY,,CRIMINAL MISCHIEF & RELATED OF,,PATROL BORO BKLYN SOUTH,269,"MISCHIEF,CRIMINAL,    UNCL 2ND",TRANSIT - NYC SUBWAY,09/24/2021,59 STREET,UNKNOWN,UNKNOWN,U,34,UNKNOWN,UNKNOWN,D,979306,172969,40.64144339,-74.0178161,"(40.64144338700004, -74.017816097)",POINT (-74.017816097 40.64144338700004),59 ST,NR,3.62025621010454e-08
114,695285951,48,BRONX,09/29/2021,11:30:00,09/29/2021,11:58:00,COMPLETED,,,1,N.Y. TRANSIT POLICE,344,MISDEMEANOR,,ASSAULT 3 & RELATED OFFENSES,,PATROL BORO BRONX,113,"MENACING,UNCLASSIFIED",TRANSIT - NYC SUBWAY,09/29/2021,EAST TREMONT AVE.-WEST FARMS S,25-44,BLACK,M,12,45-64,BLACK HISPANIC,F,1017426,245419,40.84023962,-73.88010152,"(40.840239620000034, -73.88010152199998)",POINT (-73.88010152199998 40.840239620000034),WEST FARMS SQ,25,3.10546862803401e-07
115,977322439,40,BRONX,09/27/2021,15:55:00,09/27/2021,16:10:00,COMPLETED,,,1,N.Y. TRANSIT POLICE,105,FELONY,,ROBBERY,,PATROL BORO BRONX,386,"ROBBERY,PERSONAL ELECTRONIC DEVICE",TRANSIT - NYC SUBWAY,09/27/2021,149 ST.-GRAND CONCOURSE,18-24,BLACK,M,11,<18,BLACK,M,1004368,237509,40.81856834,-73.92731756,"(40.81856833900008, -73.92731755899997)",POINT (-73.92731755899997 40.81856833900008),149/GRAND CONC,4,6.82495431983093e-08
116,961009251,6,MANHATTAN,09/29/2021,6:00:00,09/29/2021,6:10:00,COMPLETED,,,1,N.Y. TRANSIT POLICE,105,FELONY,,ROBBERY,,PATROL BORO MAN SOUTH,386,"ROBBERY,PERSONAL ELECTRONIC DEVICE",TRANSIT - NYC SUBWAY,09/29/2021,CHRISTOPHER ST.-SHERIDAN SQ.,25-44,BLACK HISPANIC,M,2,25-44,BLACK HISPANIC,M,983478,206559,40.73364159,-74.00278704,"(40.73364158900005, -74.00278703499998)",POINT (-74.00278703499998 40.73364158900005),CHRISTOPHER ST,1,1.13477536963997e-08
117,495305921,72,BROOKLYN,09/24/2021,20:01:00,,,COMPLETED,,,1,N.Y. TRANSIT POLICE,351,MISDEMEANOR,,CRIMINAL MISCHIEF & RELATED OF,,PATROL BORO BKLYN SOUTH,258,"CRIMINAL MISCHIEF 4TH, GRAFFIT",TRANSIT - NYC SUBWAY,09/24/2021,36 STREET,,,,34,UNKNOWN,UNKNOWN,D,983024,177659,40.65431772,-74.00441993,"(40.654317721000034, -74.00441992599998)",POINT (-74.00441992599998 40.654317721000034),36 ST,DNR,7.03940332978496e-08
118,997980838,108,QUEENS,09/24/2021,21:06:00,09/24/2021,21:18:00,COMPLETED,,,1,N.Y. TRANSIT POLICE,105,FELONY,,ROBBERY,,PATROL BORO QUEENS NORTH,386,"ROBBERY,PERSONAL ELECTRONIC DEVICE",TRANSIT - NYC SUBWAY,09/24/2021,69 STREET,UNKNOWN,BLACK,M,20,65+,ASIAN / PACIFIC ISLANDER,F,1012977,211203,40.7463416,-73.89632679,"(40.74634159500005, -73.89632679099998)",POINT (-73.89632679099998 40.74634159500005),69 ST,7,2.61613210137775e-09
119,315960286,14,MANHATTAN,09/27/2021,17:45:00,09/27/2021,17:50:00,ATTEMPTED,,,1,N.Y. TRANSIT POLICE,109,FELONY,,GRAND LARCENY,,PATROL BORO MAN SOUTH,417,"LARCENY,GRAND FROM PERSON,PURS",TRANSIT - NYC SUBWAY,09/27/2021,34 ST.-HERALD SQ.,18-24,BLACK,M,2,45-64,BLACK,F,987639,212445,40.74979658,-73.98777004,"(40.749796581000055, -73.98777004399994)",POINT (-73.98777004399994 40.749796581000055),34 ST-HERALD SQ,BDFMNQRW,2.11706143991999e-07
120,159387688,43,BRONX,09/25/2021,21:50:00,09/25/2021,22:00:00,COMPLETED,,,1,N.Y. TRANSIT POLICE,233,MISDEMEANOR,,SEX CRIMES,,PATROL BORO BRONX,175,"SEXUAL ABUSE 3,2",TRANSIT - NYC SUBWAY,09/26/2021,EAST 177 ST.-PARKCHESTER,25-44,BLACK HISPANIC,U,12,18-24,BLACK,F,1020316,239179,40.8231013,-73.86969046,"(40.82310129900002, -73.86969046099993)",POINT (-73.86969046099993 40.82310129900002),MORISN AV/SNDVW,6,6.56625590535982e-05
121,541320347,84,BROOKLYN,09/19/2021,1:30:00,09/19/2021,5:00:00,COMPLETED,,,1,N.Y. TRANSIT POLICE,109,FELONY,,GRAND LARCENY,,PATROL BORO BKLYN NORTH,408,"LARCENY,GRAND FROM PERSON,LUSH WORKER(SLEEPING/UNCON VICTIM)",TRANSIT - NYC SUBWAY,09/23/2021,HOYT STREET,UNKNOWN,UNKNOWN,U,30,25-44,BLACK,M,988381,190867,40.69056985,-73.9851053,"(40.69056984600008, -73.98510529599997)",POINT (-73.98510529599997 40.69056984600008),HOYT ST,23,8.429512500754e-09
122,245015773,14,MANHATTAN,09/23/2021,15:30:00,09/23/2021,16:09:00,COMPLETED,,,1,N.Y. TRANSIT POLICE,121,FELONY,,CRIMINAL MISCHIEF & RELATED OF,,PATROL BORO MAN SOUTH,269,"MISCHIEF,CRIMINAL,    UNCL 2ND",TRANSIT - NYC SUBWAY,09/23/2021,42 STREET,UNKNOWN,UNKNOWN,U,1,UNKNOWN,UNKNOWN,D,988650,214286,40.75484922,-73.98411999,"(40.754849215000036, -73.98411999099994)",POINT (-73.98411999099994 40.754849215000036),42 ST-BRYANT PK,BDFM,1.56536499946655e-10
123,748482950,84,BROOKLYN,09/23/2021,1:00:00,09/23/2021,14:45:00,COMPLETED,,,1,N.Y. TRANSIT POLICE,341,MISDEMEANOR,,PETIT LARCENY,,PATROL BORO BKLYN NORTH,339,"LARCENY,PETIT FROM OPEN AREAS,",TRANSIT - NYC SUBWAY,09/23/2021,DEKALB AVENUE,UNKNOWN,UNKNOWN,U,30,UNKNOWN,UNKNOWN,D,989388,190638,40.68994077,-73.98147429,"(40.689940767000046, -73.98147428699998)",POINT (-73.98147428699998 40.689940767000046),DEKALB AV,BDNQR,1.45867128996685e-07
124,165766335,5,MANHATTAN,09/28/2021,7:00:00,09/28/2021,7:20:00,COMPLETED,,,1,N.Y. TRANSIT POLICE,344,MISDEMEANOR,,ASSAULT 3 & RELATED OFFENSES,,PATROL BORO MAN SOUTH,101,ASSAULT 3,TRANSIT - NYC SUBWAY,09/28/2021,BROOKLYN BRIDGE-CITY HALL,UNKNOWN,WHITE,M,2,45-64,WHITE,M,983125,199091,40.7131437,-74.00405951,"(40.71314369600003, -74.00405950599996)",POINT (-74.00405950599996 40.71314369600003),BROOKLYN BRIDGE,456,1.53835938096999e-07
125,772668431,62,BROOKLYN,09/26/2021,0:46:00,09/26/2021,0:55:00,COMPLETED,,,1,N.Y. TRANSIT POLICE,344,MISDEMEANOR,,ASSAULT 3 & RELATED OFFENSES,,PATROL BORO BKLYN SOUTH,101,ASSAULT 3,TRANSIT - NYC SUBWAY,09/26/2021,71 STREET,25-44,BLACK,M,34,25-44,BLACK,F,984518,164775,40.61895396,-73.99903608,"(40.61895395900007, -73.99903608499993)",POINT (-73.99903608499993 40.61895395900007),71 ST,D,5.02506706005403e-07
126,789523455,1,MANHATTAN,09/25/2021,5:55:00,09/25/2021,6:05:00,COMPLETED,,,1,N.Y. TRANSIT POLICE,109,FELONY,,GRAND LARCENY,,PATROL BORO MAN SOUTH,415,"LARCENY,GRAND FROM PERSON,PICK",TRANSIT - NYC SUBWAY,09/25/2021,BOWLING GREEN,UNKNOWN,WHITE HISPANIC,M,2,65+,BLACK,M,980288,195963,40.70455726,-74.01429119,"(40.70455725800008, -74.01429118899993)",POINT (-74.01429118899993 40.70455725800008),BOWLING GREEN,45,9.26444596979922e-08
127,928953891,109,QUEENS,09/24/2021,8:10:00,,,COMPLETED,,,1,N.Y. TRANSIT POLICE,109,FELONY,,GRAND LARCENY,,PATROL BORO QUEENS NORTH,406,"LARCENY,GRAND FROM PERSON, BAG OPEN/DIP",TRANSIT - NYC SUBWAY,09/24/2021,MAIN ST.-FLUSHING,UNKNOWN,UNKNOWN,U,20,<18,WHITE HISPANIC,M,1031307,216054,40.7595778,-73.8301407,"(40.759577798000066, -73.83014069999997)",POINT (-73.83014069999997 40.759577798000066),FLUSHING-MAIN,7,4.81701200048039e-08
128,159470773,112,QUEENS,09/25/2021,11:15:00,09/25/2021,11:17:00,COMPLETED,,,1,N.Y. TRANSIT POLICE,578,VIOLATION,,HARRASSMENT 2,,PATROL BORO QUEENS NORTH,637,"HARASSMENT,SUBD 1,CIVILIAN",TRANSIT - NYC SUBWAY,09/25/2021,71 AVE.-FOREST HILLS,65+,WHITE,F,20,45-64,ASIAN / PACIFIC ISLANDER,F,1027498,202160,40.72146173,-73.84397927,"(40.721461728000065, -73.84397926999998)",POINT (-73.84397926999998 40.721461728000065),FOREST HILLS 71,EFMR,6.25217501788263e-07
129,396809795,52,BRONX,09/26/2021,16:18:00,09/26/2021,16:20:00,COMPLETED,,,1,N.Y. TRANSIT POLICE,578,VIOLATION,,HARRASSMENT 2,,PATROL BORO BRONX,637,"HARASSMENT,SUBD 1,CIVILIAN",TRANSIT - NYC SUBWAY,09/26/2021,183 STREET,25-44,BLACK,M,11,25-44,BLACK,F,1010831,252019,40.85837698,-73.90391004,"(40.858376975000056, -73.90391003799994)",POINT (-73.90391003799994 40.858376975000056),183 ST,4,1.40039999291161e-11
130,680522901,52,BRONX,09/22/2021,22:00:00,09/23/2021,8:14:00,COMPLETED,,,1,N.Y. TRANSIT POLICE,121,FELONY,,CRIMINAL MISCHIEF & RELATED OF,,PATROL BORO BRONX,268,CRIMINAL MIS 2 & 3,TRANSIT - NYC SUBWAY,09/23/2021,WOODLAWN,,,,11,UNKNOWN,UNKNOWN,D,1017983,262622,40.8874545,-73.87800191,"(40.88745450300007, -73.87800190799999)",POINT (-73.87800190799999 40.88745450300007),WOODLAWN,4,3.32883664094034e-07
131,514717332,73,BROOKLYN,09/25/2021,3:10:00,09/25/2021,3:15:00,COMPLETED,,,1,N.Y. TRANSIT POLICE,344,MISDEMEANOR,,ASSAULT 3 & RELATED OFFENSES,,PATROL BORO BKLYN NORTH,101,ASSAULT 3,TRANSIT - NYC SUBWAY,09/25/2021,BROADWAY-EASTERN PKWY,,,,33,45-64,WHITE HISPANIC,M,1010719,186857,40.6795247,-73.90457154,"(40.67952470300003, -73.90457153799997)",POINT (-73.90457153799997 40.67952470300003),BROADWAY JCT,ACJLZ,3.03468067609383e-07
132,516312856,103,QUEENS,09/28/2021,15:56:00,09/28/2021,15:59:00,COMPLETED,,,1,N.Y. TRANSIT POLICE,113,FELONY,,FORGERY,,PATROL BORO QUEENS SOUTH,729,"FORGERY,ETC.,UNCLASSIFIED-FELO",TRANSIT - NYC SUBWAY,09/28/2021,PARSONS/ARCHER-JAMAICA CENTER,,,,20,UNKNOWN,UNKNOWN,E,1039726,195270,40.70248213,-73.79992225,"(40.702482133000046, -73.799922252)",POINT (-73.799922252 40.702482133000046),JAMAICA CENTER,EJZ,1.0255975274001e-06
133,610234957,73,BROOKLYN,09/28/2021,14:40:00,09/28/2021,14:45:00,COMPLETED,,,1,N.Y. TRANSIT POLICE,106,FELONY,,FELONY ASSAULT,,PATROL BORO BKLYN NORTH,106,ASSAULT POLICE/PEACE OFFICER,TRANSIT - NYC SUBWAY,09/28/2021,BROADWAY-EASTERN PKWY,18-24,WHITE HISPANIC,M,33,UNKNOWN,UNKNOWN,E,1010719,186857,40.6795247,-73.90457154,"(40.67952470300003, -73.90457153799997)",POINT (-73.90457153799997 40.67952470300003),BROADWAY JCT,ACJLZ,3.03468067609383e-07
134,142585886,44,BRONX,09/24/2021,11:30:00,09/24/2021,11:48:00,COMPLETED,,,1,N.Y. TRANSIT POLICE,113,FELONY,,FORGERY,,PATROL BORO BRONX,729,"FORGERY,ETC.,UNCLASSIFIED-FELO",TRANSIT - NYC SUBWAY,09/24/2021,161 ST.-YANKEE STADIUM,45-64,BLACK,M,11,UNKNOWN,UNKNOWN,E,1004749,240880,40.8278199,-73.92593076,"(40.827819901000055, -73.92593075599996)",POINT (-73.92593075599996 40.827819901000055),161/YANKEE STAD,4BD,1.75402177599273e-07
135,468855169,5,MANHATTAN,09/30/2021,2:40:00,09/30/2021,2:47:00,COMPLETED,,,1,N.Y. TRANSIT POLICE,118,FELONY,,DANGEROUS WEAPONS,,PATROL BORO MAN SOUTH,793,WEAPONS POSSESSION 3,TRANSIT - NYC SUBWAY,09/30/2021,BROOKLYN BRIDGE-CITY HALL,,,,2,UNKNOWN,UNKNOWN,E,983125,199091,40.7131437,-74.00405951,"(40.71314369600003, -74.00405950599996)",POINT (-74.00405950599996 40.71314369600003),BROOKLYN BRIDGE,456,1.53835938096999e-07
136,856603143,44,BRONX,09/28/2021,16:15:00,09/28/2021,16:26:00,COMPLETED,,,1,N.Y. TRANSIT POLICE,233,MISDEMEANOR,,SEX CRIMES,,PATROL BORO BRONX,175,"SEXUAL ABUSE 3,2",TRANSIT - NYC SUBWAY,09/28/2021,161 ST.-YANKEE STADIUM,,,,11,25-44,BLACK HISPANIC,F,1006434,244344,40.83732351,-73.91983076,"(40.83732351100008, -73.91983075699994)",POINT (-73.91983075699994 40.83732351100008),167 ST,4,4.42405329970734e-06
137,274846491,25,MANHATTAN,09/30/2021,9:00:00,09/30/2021,9:15:00,COMPLETED,,,1,N.Y. TRANSIT POLICE,109,FELONY,,GRAND LARCENY,,PATROL BORO MAN NORTH,415,"LARCENY,GRAND FROM PERSON,PICK",TRANSIT - NYC SUBWAY,09/30/2021,116 STREET,UNKNOWN,UNKNOWN,M,4,25-44,BLACK,F,1000414,230242,40.79863056,-73.94162037,"(40.798630555000045, -73.94162037399997)",POINT (-73.94162037399997 40.798630555000045),116 ST,6,4.50499992552443e-13
138,210745376,70,BROOKLYN,09/27/2021,13:13:00,09/27/2021,13:20:00,COMPLETED,,,1,N.Y. TRANSIT POLICE,105,FELONY,,ROBBERY,,PATROL BORO BKLYN SOUTH,386,"ROBBERY,PERSONAL ELECTRONIC DEVICE",TRANSIT - NYC SUBWAY,09/27/2021,NEWKIRK AVENUE,UNKNOWN,UNKNOWN,U,34,<18,WHITE,M,994663,170966,40.63594084,-73.9624835,"(40.635940841000036, -73.96248349799998)",POINT (-73.96248349799998 40.635940841000036),NEWKIRK AV,25,9.93399931604217e-07
139,432233257,75,BROOKLYN,09/25/2021,5:16:00,09/25/2021,5:19:00,COMPLETED,,,1,N.Y. TRANSIT POLICE,351,MISDEMEANOR,,CRIMINAL MISCHIEF & RELATED OF,,PATROL BORO BKLYN NORTH,259,"CRIMINAL MISCHIEF,UNCLASSIFIED 4",TRANSIT - NYC SUBWAY,09/25/2021,NEW LOTS AVENUE,UNKNOWN,UNKNOWN,U,33,UNKNOWN,UNKNOWN,D,1012212,179425,40.65912094,-73.89921959,"(40.65912094200007, -73.89921958799994)",POINT (-73.89921958799994 40.65912094200007),NEW LOTS,L,5.68493837013002e-08
140,581883430,5,MANHATTAN,09/28/2021,15:47:00,09/28/2021,16:03:00,COMPLETED,,,1,N.Y. TRANSIT POLICE,344,MISDEMEANOR,,ASSAULT 3 & RELATED OFFENSES,,PATROL BORO MAN SOUTH,101,ASSAULT 3,TRANSIT - NYC SUBWAY,09/28/2021,GRAND STREET,25-44,BLACK,M,4,45-64,WHITE,M,985961,200916,40.71815279,-73.99382913,"(40.71815279100008, -73.99382912599998)",POINT (-73.99382912599998 40.71815279100008),GRAND ST,BD,6.75463489970558e-08
141,221606089,14,MANHATTAN,09/28/2021,19:54:00,09/28/2021,19:57:00,COMPLETED,,,1,N.Y. TRANSIT POLICE,235,MISDEMEANOR,,DANGEROUS DRUGS,,PATROL BORO MAN SOUTH,511,"CONTROLLED SUBSTANCE, POSSESSI",TRANSIT - NYC SUBWAY,09/28/2021,42 ST.-PORT AUTHORITY BUS TERM,,,,1,UNKNOWN,UNKNOWN,E,987341,215631,40.75854145,-73.98884411,"(40.75854145200003, -73.988844106)",POINT (-73.988844106 40.75854145200003),42 ST-PORT AUTH,ACE,5.7220709025819e-06
142,485767000,103,QUEENS,05/28/2021,4:38:00,09/29/2021,5:25:00,COMPLETED,,,1,N.Y. TRANSIT POLICE,343,MISDEMEANOR,,THEFT OF SERVICES,,PATROL BORO QUEENS SOUTH,475,UNAUTH. SALE OF TRANS. SERVICE,TRANSIT - NYC SUBWAY,09/29/2021,PARSONS/ARCHER-JAMAICA CENTER,25-44,BLACK,M,20,UNKNOWN,UNKNOWN,E,1039726,195270,40.70248213,-73.79992225,"(40.702482133000046, -73.799922252)",POINT (-73.799922252 40.702482133000046),JAMAICA CENTER,EJZ,1.0255975274001e-06
143,479301419,70,BROOKLYN,09/25/2021,5:30:00,09/25/2021,9:15:00,COMPLETED,,,1,N.Y. TRANSIT POLICE,341,MISDEMEANOR,,PETIT LARCENY,,PATROL BORO BKLYN SOUTH,339,"LARCENY,PETIT FROM OPEN AREAS,",TRANSIT - NYC SUBWAY,09/25/2021,CHURCH AVENUE,,,,32,18-24,BLACK,M,994496,175887,40.64944812,-73.96307773,"(40.64944812400006, -73.96307772599994)",POINT (-73.96307772599994 40.64944812400006),CHURCH AV,BQ,4.815810129877e-08
144,848085745,20,MANHATTAN,09/26/2021,3:00:00,09/26/2021,4:00:00,COMPLETED,,,1,N.Y. TRANSIT POLICE,341,MISDEMEANOR,,PETIT LARCENY,,PATROL BORO MAN NORTH,339,"LARCENY,PETIT FROM OPEN AREAS,",TRANSIT - NYC SUBWAY,09/26/2021,79 STREET,UNKNOWN,UNKNOWN,U,1,45-64,ASIAN / PACIFIC ISLANDER,F,989792,224853,40.78385225,-73.97998932,"(40.78385224500005, -73.97998931899998)",POINT (-73.97998931899998 40.78385224500005),79 ST,1,1.19132449000908e-08
145,181011992,108,QUEENS,09/27/2021,5:40:00,09/27/2021,5:45:00,COMPLETED,,,1,N.Y. TRANSIT POLICE,344,MISDEMEANOR,,ASSAULT 3 & RELATED OFFENSES,,PATROL BORO QUEENS NORTH,101,ASSAULT 3,TRANSIT - NYC SUBWAY,09/27/2021,VERNON BLVD.-JACKSON AVE.,UNKNOWN,BLACK,M,20,45-64,ASIAN / PACIFIC ISLANDER,M,996967,209876,40.74273683,-73.95410877,"(40.74273682500007, -73.954108767)",POINT (-73.954108767 40.74273682500007),JACKSON AV,25,1.51727141801187e-07
146,962704091,78,BROOKLYN,09/24/2021,15:20:00,09/24/2021,15:30:00,COMPLETED,,,1,N.Y. TRANSIT POLICE,578,VIOLATION,,HARRASSMENT 2,,PATROL BORO BKLYN SOUTH,638,"HARASSMENT,SUBD 3,4,5",TRANSIT - NYC SUBWAY,09/24/2021,4 AVENUE-9 STREET,25-44,BLACK,M,30,25-44,ASIAN / PACIFIC ISLANDER,F,987381,183506,40.67036598,-73.98871466,"(40.670365979000046, -73.98871465799994)",POINT (-73.98871465799994 40.670365979000046),4 AV-9 ST,DFGMNR,4.33257530001253e-07
147,691896760,6,MANHATTAN,09/28/2021,22:00:00,09/28/2021,22:05:00,COMPLETED,,,1,N.Y. TRANSIT POLICE,361,MISDEMEANOR,,OFF. AGNST PUB ORD SENSBLTY &,,PATROL BORO MAN SOUTH,661,"LEWDNESS,PUBLIC",TRANSIT - NYC SUBWAY,09/28/2021,8 AVENUE,,,,2,25-44,ASIAN / PACIFIC ISLANDER,F,983551,208788,40.73975965,-74.00252386,"(40.739759650000046, -74.00252386299998)",POINT (-74.00252386299998 40.739759650000046),14 ST,123FLM,6.91518500998922e-08
148,347739661,25,MANHATTAN,09/24/2021,19:10:00,09/24/2021,19:15:00,COMPLETED,,,1,N.Y. TRANSIT POLICE,113,FELONY,,FORGERY,,PATROL BORO MAN NORTH,729,"FORGERY,ETC.,UNCLASSIFIED-FELO",TRANSIT - NYC SUBWAY,09/24/2021,125 STREET,45-64,BLACK,M,4,UNKNOWN,UNKNOWN,E,1001575,232339,40.80438405,-73.93742167,"(40.804384046000045, -73.93742166899995)",POINT (-73.93742166899995 40.804384046000045),125 ST,23,6.17633998336553e-11
149,767166796,83,BROOKLYN,09/26/2021,0:00:00,09/26/2021,0:08:00,COMPLETED,,,1,N.Y. TRANSIT POLICE,351,MISDEMEANOR,,CRIMINAL MISCHIEF & RELATED OF,,PATROL BORO BKLYN NORTH,258,"CRIMINAL MISCHIEF 4TH, GRAFFIT",TRANSIT - NYC SUBWAY,09/26/2021,BUSHWICK AVE.-ABERDEEN ST.,18-24,WHITE,F,33,UNKNOWN,UNKNOWN,E,1010421,187901,40.68239113,-73.90564188,"(40.68239113100003, -73.90564187499997)",POINT (-73.90564187499997 40.68239113100003),BROADWAY JCT,ACJLZ,1.21183312493132e-05
150,131446408,52,BRONX,09/28/2021,19:15:00,,,COMPLETED,,,1,N.Y. TRANSIT POLICE,233,MISDEMEANOR,,SEX CRIMES,,PATROL BORO BRONX,175,"SEXUAL ABUSE 3,2",TRANSIT - NYC SUBWAY,09/29/2021,KINGSBRIDGE ROAD,UNKNOWN,BLACK HISPANIC,M,11,<18,WHITE HISPANIC,F,1017542,255919,40.86905853,-73.87963015,"(40.86905853200005, -73.87963014799993)",POINT (-73.87963014799993 40.86905853200005),NORWOOD 205 ST,D,3.02751278674339e-05
151,880302031,10,MANHATTAN,09/26/2021,4:05:00,09/26/2021,4:30:00,COMPLETED,,,1,N.Y. TRANSIT POLICE,109,FELONY,,GRAND LARCENY,,PATROL BORO MAN SOUTH,408,"LARCENY,GRAND FROM PERSON,LUSH WORKER(SLEEPING/UNCON VICTIM)",TRANSIT - NYC SUBWAY,09/26/2021,14 STREET,UNKNOWN,UNKNOWN,U,2,18-24,ASIAN / PACIFIC ISLANDER,F,983551,208788,40.73975965,-74.00252386,"(40.739759650000046, -74.00252386299998)",POINT (-74.00252386299998 40.739759650000046),14 ST,123FLM,6.91518500998922e-08
152,181235985,26,MANHATTAN,09/30/2021,1:54:00,09/30/2021,1:55:00,COMPLETED,,,1,N.Y. TRANSIT POLICE,235,MISDEMEANOR,,DANGEROUS DRUGS,,PATROL BORO MAN NORTH,511,"CONTROLLED SUBSTANCE, POSSESSI",TRANSIT - NYC SUBWAY,09/30/2021,125 STREET,,,,3,UNKNOWN,UNKNOWN,E,997374,234664,40.81077277,-73.95259159,"(40.81077276700007, -73.95259158999993)",POINT (-73.95259158999993 40.81077276700007),125 ST,1,2.78020999901851e-10
153,863391729,14,MANHATTAN,09/25/2021,17:43:00,09/25/2021,17:46:00,COMPLETED,,,1,N.Y. TRANSIT POLICE,235,MISDEMEANOR,,DANGEROUS DRUGS,,PATROL BORO MAN SOUTH,511,"CONTROLLED SUBSTANCE, POSSESSI",TRANSIT - NYC SUBWAY,09/25/2021,42 ST.-PORT AUTHORITY BUS TERM,45-64,BLACK,M,1,UNKNOWN,UNKNOWN,E,987341,215631,40.75854145,-73.98884411,"(40.75854145200003, -73.988844106)",POINT (-73.988844106 40.75854145200003),42 ST-PORT AUTH,ACE,5.7220709025819e-06
154,921723836,14,MANHATTAN,09/24/2021,13:39:00,09/24/2021,13:44:00,COMPLETED,,,1,N.Y. TRANSIT POLICE,117,FELONY,,DANGEROUS DRUGS,,PATROL BORO MAN SOUTH,503,"CONTROLLED SUBSTANCE,INTENT TO",TRANSIT - NYC SUBWAY,09/24/2021,42 ST.-PORT AUTHORITY BUS TERM,25-44,WHITE,M,1,UNKNOWN,UNKNOWN,E,986819,214690,40.75595881,-73.99072869,"(40.755958814000046, -73.99072868799993)",POINT (-73.99072868799993 40.755958814000046),42 ST-PORT AUTH,ACE,7.21625904199381e-07
155,591741089,1,MANHATTAN,09/28/2021,22:30:00,09/28/2021,23:00:00,COMPLETED,,,1,N.Y. TRANSIT POLICE,341,MISDEMEANOR,,PETIT LARCENY,,PATROL BORO MAN SOUTH,339,"LARCENY,PETIT FROM OPEN AREAS,",TRANSIT - NYC SUBWAY,09/30/2021,RECTOR STREET,UNKNOWN,UNKNOWN,U,2,25-44,WHITE HISPANIC,M,980656,197137,40.70777977,-74.01296455,"(40.70777977000005, -74.01296454999994)",POINT (-74.01296454999994 40.70777977000005),RECTOR ST,1,4.64887099376574e-07
156,508018844,52,BRONX,09/30/2021,11:50:00,09/30/2021,11:59:00,COMPLETED,,,1,N.Y. TRANSIT POLICE,111,FELONY,,POSSESSION OF STOLEN PROPERTY,,PATROL BORO BRONX,494,"STOLEN PROPERTY 2,1,POSSESSION",TRANSIT - NYC SUBWAY,09/30/2021,183 STREET,65+,BLACK,M,11,UNKNOWN,UNKNOWN,E,1010831,252019,40.85837698,-73.90391004,"(40.858376975000056, -73.90391003799994)",POINT (-73.90391003799994 40.858376975000056),183 ST,4,1.40039999291161e-11
157,692157224,52,BRONX,09/26/2021,3:15:00,09/26/2021,3:17:00,COMPLETED,,,1,N.Y. TRANSIT POLICE,105,FELONY,,ROBBERY,,PATROL BORO BRONX,386,"ROBBERY,PERSONAL ELECTRONIC DEVICE",TRANSIT - NYC SUBWAY,09/26/2021,KINGSBRIDGE ROAD,UNKNOWN,BLACK,U,11,25-44,WHITE HISPANIC,M,1013463,254828,40.86607851,-73.89438301,"(40.86607851200006, -73.89438301399997)",POINT (-73.89438301399997 40.86607851200006),KINGSBRIDGE RD,4,2.10660080196176e-07
158,504989709,103,QUEENS,09/30/2021,12:00:00,09/30/2021,12:05:00,COMPLETED,,,1,N.Y. TRANSIT POLICE,109,FELONY,,GRAND LARCENY,,PATROL BORO QUEENS SOUTH,419,"LARCENY,GRAND FROM PERSON,UNCL",TRANSIT - NYC SUBWAY,09/30/2021,PARSONS/ARCHER-JAMAICA CENTER,25-44,BLACK,M,20,25-44,BLACK,M,1039726,195270,40.70248213,-73.79992225,"(40.702482133000046, -73.799922252)",POINT (-73.799922252 40.702482133000046),JAMAICA CENTER,EJZ,1.0255975274001e-06
159,347140189,34,MANHATTAN,09/28/2021,19:50:00,09/28/2021,20:30:00,COMPLETED,,,1,N.Y. TRANSIT POLICE,351,MISDEMEANOR,,CRIMINAL MISCHIEF & RELATED OF,,PATROL BORO MAN NORTH,259,"CRIMINAL MISCHIEF,UNCLASSIFIED 4",TRANSIT - NYC SUBWAY,09/28/2021,191 STREET,UNKNOWN,UNKNOWN,U,3,UNKNOWN,UNKNOWN,D,1003844,250988,40.85556546,-73.92917133,"(40.85556546000004, -73.92917133299993)",POINT (-73.92917133299993 40.85556546000004),191 ST,1,1.26299490864565e-05
160,373769290,102,QUEENS,09/29/2021,6:05:00,09/29/2021,6:10:00,COMPLETED,,,1,N.Y. TRANSIT POLICE,344,MISDEMEANOR,,ASSAULT 3 & RELATED OFFENSES,,PATROL BORO QUEENS SOUTH,101,ASSAULT 3,TRANSIT - NYC SUBWAY,09/30/2021,JAMAICA-VAN WYCK,UNKNOWN,BLACK,M,20,45-64,BLACK,F,1030953,194101,40.69932416,-73.83157089,"(40.69932415700004, -73.83157088799999)",POINT (-73.83157088799999 40.69932415700004),121 ST,JZ,7.10252146368719e-06
161,272462106,1,MANHATTAN,09/29/2021,17:54:00,09/29/2021,17:56:00,COMPLETED,,,1,N.Y. TRANSIT POLICE,344,MISDEMEANOR,,ASSAULT 3 & RELATED OFFENSES,,PATROL BORO MAN SOUTH,114,OBSTR BREATH/CIRCUL,TRANSIT - NYC SUBWAY,09/29/2021,FULTON STREET,25-44,BLACK HISPANIC,M,2,18-24,WHITE HISPANIC,F,981604,198068,40.71033548,-74.0095456,"(40.71033547800005, -74.00954559999997)",POINT (-74.00954559999997 40.71033547800005),CORTLANDT ST,NRW,1.93112357441651e-06
162,516836198,18,MANHATTAN,09/22/2021,23:40:00,09/22/2021,23:45:00,COMPLETED,,,1,N.Y. TRANSIT POLICE,341,MISDEMEANOR,,PETIT LARCENY,,PATROL BORO MAN SOUTH,339,"LARCENY,PETIT FROM OPEN AREAS,",TRANSIT - NYC SUBWAY,09/23/2021,57 STREET,18-24,ASIAN / PACIFIC ISLANDER,M,1,18-24,ASIAN / PACIFIC ISLANDER,M,989780,218177,40.76552838,-73.98003814,"(40.765528380000035, -73.98003814399993)",POINT (-73.98003814399993 40.765528380000035),57 ST-7 AV,NQRW,8.2989145998739e-08
163,387870009,6,MANHATTAN,09/28/2021,19:00:00,09/28/2021,19:30:00,COMPLETED,,,1,N.Y. TRANSIT POLICE,105,FELONY,,ROBBERY,,PATROL BORO MAN SOUTH,384,"ROBBERY,POCKETBOOK/CARRIED BAG",TRANSIT - NYC SUBWAY,09/28/2021,W. 4 STREET,,,,2,65+,WHITE,F,983985,205857,40.7317148,-74.00095761,"(40.731714801000074, -74.00095761299998)",POINT (-74.00095761299998 40.731714801000074),W 4 ST-WASH SQ,ABCDEFM,4.31912386092433e-07
164,127046434,28,MANHATTAN,09/29/2021,14:45:00,09/29/2021,14:53:00,COMPLETED,,,1,N.Y. TRANSIT POLICE,235,MISDEMEANOR,,DANGEROUS DRUGS,,PATROL BORO MAN NORTH,511,"CONTROLLED SUBSTANCE, POSSESSI",TRANSIT - NYC SUBWAY,09/29/2021,125 STREET,45-64,BLACK,M,3,UNKNOWN,UNKNOWN,E,999342,233575,40.80778062,-73.94548473,"(40.807780622000045, -73.94548472699995)",POINT (-73.94548472699995 40.807780622000045),125 ST,ABCD,5.81139808171326e-05
165,529695468,73,BROOKLYN,09/27/2021,7:15:00,09/27/2021,7:20:00,COMPLETED,,,1,N.Y. TRANSIT POLICE,578,VIOLATION,,HARRASSMENT 2,,PATROL BORO BKLYN NORTH,638,"HARASSMENT,SUBD 3,4,5",TRANSIT - NYC SUBWAY,09/28/2021,BROADWAY-EASTERN PKWY,25-44,BLACK,F,33,18-24,BLACK,F,1010719,186857,40.6795247,-73.90457154,"(40.67952470300003, -73.90457153799997)",POINT (-73.90457153799997 40.67952470300003),BROADWAY JCT,ACJLZ,3.03468067609383e-07
166,354864657,1,MANHATTAN,09/28/2021,14:30:00,09/28/2021,15:00:00,COMPLETED,,,1,N.Y. TRANSIT POLICE,344,MISDEMEANOR,,ASSAULT 3 & RELATED OFFENSES,,PATROL BORO MAN SOUTH,101,ASSAULT 3,TRANSIT - NYC SUBWAY,09/28/2021,SOUTH FERRY,<18,BLACK,M,2,<18,BLACK,M,980770,194854,40.70151352,-74.01255219,"(40.701513516000034, -74.01255218599994)",POINT (-74.01255218599994 40.701513516000034),WHITEHALL S-FRY,RW,2.12975522503309e-07
167,734570180,1,MANHATTAN,09/28/2021,4:30:00,09/28/2021,4:45:00,COMPLETED,,,1,N.Y. TRANSIT POLICE,341,MISDEMEANOR,,PETIT LARCENY,,PATROL BORO MAN SOUTH,339,"LARCENY,PETIT FROM OPEN AREAS,",TRANSIT - NYC SUBWAY,09/28/2021,CORTLANDT STREET,UNKNOWN,UNKNOWN,U,2,25-44,WHITE HISPANIC,M,981136,198082,40.71037375,-74.01123369,"(40.710373753000056, -74.01123368799993)",POINT (-74.01123368799993 40.710373753000056),CORTLANDT ST,NRW,6.20783498606365e-07
168,724460301,25,MANHATTAN,09/28/2021,9:45:00,09/28/2021,9:48:00,COMPLETED,,,1,N.Y. TRANSIT POLICE,113,FELONY,,FORGERY,,PATROL BORO MAN NORTH,729,"FORGERY,ETC.,UNCLASSIFIED-FELO",TRANSIT - NYC SUBWAY,09/28/2021,125 STREET,25-44,BLACK,M,4,UNKNOWN,UNKNOWN,E,1001575,232339,40.80438405,-73.93742167,"(40.804384046000045, -73.93742166899995)",POINT (-73.93742166899995 40.804384046000045),125 ST,23,6.17633998336553e-11
169,169063404,1,MANHATTAN,09/27/2021,17:11:00,09/27/2021,17:40:00,COMPLETED,,,1,N.Y. TRANSIT POLICE,344,MISDEMEANOR,,ASSAULT 3 & RELATED OFFENSES,,PATROL BORO MAN SOUTH,101,ASSAULT 3,TRANSIT - NYC SUBWAY,09/27/2021,BROADWAY/NASSAU,UNKNOWN,BLACK,M,2,18-24,BLACK,M,982103,198029,40.71022857,-74.00774569,"(40.71022856800005, -74.00774568899999)",POINT (-74.00774568899999 40.71022856800005),FULTON ST,2345ACJZ,1.26197166100948e-06
170,655050547,115,QUEENS,09/29/2021,7:44:00,09/29/2021,7:53:00,COMPLETED,,,1,N.Y. TRANSIT POLICE,113,FELONY,,FORGERY,,PATROL BORO QUEENS NORTH,729,"FORGERY,ETC.,UNCLASSIFIED-FELO",TRANSIT - NYC SUBWAY,09/29/2021,JUNCTION BLVD.,45-64,WHITE HISPANIC,M,20,UNKNOWN,UNKNOWN,E,1020429,212242,40.74916604,-73.86942725,"(40.74916603900005, -73.86942725099993)",POINT (-73.86942725099993 40.74916603900005),JUNCTION BLVD,7,9.60160409988603e-09
171,880210805,84,BROOKLYN,09/29/2021,10:00:00,09/29/2021,10:18:00,COMPLETED,,,1,N.Y. TRANSIT POLICE,351,MISDEMEANOR,,CRIMINAL MISCHIEF & RELATED OF,,PATROL BORO BKLYN NORTH,259,"CRIMINAL MISCHIEF,UNCLASSIFIED 4",TRANSIT - NYC SUBWAY,09/29/2021,HOYT-SCHERMERHORN,25-44,BLACK,F,30,45-64,WHITE,F,988089,190305,40.68902742,-73.98615855,"(40.689027417000034, -73.98615855199995)",POINT (-73.98615855199995 40.689027417000034),HOYT-SCHER,ACG,1.56241184902507e-07
172,909882622,30,MANHATTAN,09/25/2021,22:40:00,09/25/2021,22:52:00,COMPLETED,,,1,N.Y. TRANSIT POLICE,355,MISDEMEANOR,,OFFENSES AGAINST THE PERSON,,PATROL BORO MAN NORTH,115,RECKLESS ENDANGERMENT 2,TRANSIT - NYC SUBWAY,09/25/2021,145 STREET,18-24,BLACK,M,3,UNKNOWN,UNKNOWN,M,999539,239499,40.82404,-73.94475961,"(40.82404000400004, -73.94475961199998)",POINT (-73.94475961199998 40.82404000400004),145 ST,1,1.8147610006906e-10
173,400175670,30,MANHATTAN,09/29/2021,16:35:00,09/29/2021,16:39:00,COMPLETED,,,1,N.Y. TRANSIT POLICE,235,MISDEMEANOR,,DANGEROUS DRUGS,,PATROL BORO MAN NORTH,511,"CONTROLLED SUBSTANCE, POSSESSI",TRANSIT - NYC SUBWAY,09/29/2021,137 ST.-CITY COLLEGE,45-64,BLACK,M,3,UNKNOWN,UNKNOWN,E,996945,238532,40.82138997,-73.95413402,"(40.82138997100003, -73.95413401699994)",POINT (-73.95413401699994 40.82138997100003),137 ST CITY COL,1,2.98942129975402e-09
174,301878704,28,MANHATTAN,09/23/2021,14:00:00,09/23/2021,14:06:00,COMPLETED,,,1,N.Y. TRANSIT POLICE,235,MISDEMEANOR,,DANGEROUS DRUGS,,PATROL BORO MAN NORTH,511,"CONTROLLED SUBSTANCE, POSSESSI",TRANSIT - NYC SUBWAY,09/23/2021,125 STREET,25-44,BLACK,M,3,UNKNOWN,UNKNOWN,E,999342,233575,40.80778062,-73.94548473,"(40.807780622000045, -73.94548472699995)",POINT (-73.94548472699995 40.807780622000045),125 ST,ABCD,5.81139808171326e-05
175,822390028,103,QUEENS,07/22/2021,7:06:00,07/22/2021,7:41:00,COMPLETED,,,1,N.Y. TRANSIT POLICE,343,MISDEMEANOR,,THEFT OF SERVICES,,PATROL BORO QUEENS SOUTH,475,UNAUTH. SALE OF TRANS. SERVICE,TRANSIT - NYC SUBWAY,09/28/2021,PARSONS/ARCHER-JAMAICA CENTER,,,,20,UNKNOWN,UNKNOWN,E,1039726,195270,40.70248213,-73.79992225,"(40.702482133000046, -73.799922252)",POINT (-73.799922252 40.702482133000046),JAMAICA CENTER,EJZ,1.0255975274001e-06
176,580058675,43,BRONX,09/28/2021,2:15:00,09/28/2021,2:21:00,COMPLETED,,,1,N.Y. TRANSIT POLICE,109,FELONY,,GRAND LARCENY,,PATROL BORO BRONX,404,"LARCENY,GRAND FROM PERSON,PERSONAL ELECTRONIC DEVICE(SNATCH)",TRANSIT - NYC SUBWAY,09/28/2021,ELDER AVENUE,25-44,BLACK HISPANIC,M,12,25-44,WHITE HISPANIC,M,1017689,241175,40.82859008,-73.87917218,"(40.82859008200006, -73.87917218299998)",POINT (-73.87917218299998 40.82859008200006),ELDER AV,6,2.51198800371296e-10
177,291636998,14,MANHATTAN,09/30/2021,12:25:00,09/30/2021,12:26:00,COMPLETED,,,1,N.Y. TRANSIT POLICE,126,FELONY,,MISCELLANEOUS PENAL LAW,,PATROL BORO MAN SOUTH,760,"BRIBERY,PUBLIC ADMINISTRATION",TRANSIT - NYC SUBWAY,09/30/2021,42 ST.-PORT AUTHORITY BUS TERM,45-64,BLACK,M,1,UNKNOWN,UNKNOWN,E,987078,215157,40.75724053,-73.98979364,"(40.757240531000036, -73.98979363699993)",POINT (-73.98979363699993 40.757240531000036),42 ST-PORT AUTH,ACE,6.47682602487066e-07
178,704190807,103,QUEENS,09/30/2021,14:45:00,09/30/2021,15:02:00,COMPLETED,,,1,N.Y. TRANSIT POLICE,113,FELONY,,FORGERY,,PATROL BORO QUEENS SOUTH,729,"FORGERY,ETC.,UNCLASSIFIED-FELO",TRANSIT - NYC SUBWAY,09/30/2021,SUTPHIN BLVD.-ARCHER AVE.,25-44,BLACK,M,20,UNKNOWN,UNKNOWN,E,1037559,194576,40.70059059,-73.8077432,"(40.70059059000005, -73.80774319999993)",POINT (-73.80774319999993 40.70059059000005),JFK JAMAICA CT1,E,8.63477980993214e-08
179,327199159,26,MANHATTAN,09/25/2021,2:15:00,09/25/2021,2:55:00,COMPLETED,,,1,N.Y. TRANSIT POLICE,106,FELONY,,FELONY ASSAULT,,PATROL BORO MAN NORTH,109,"ASSAULT 2,1,UNCLASSIFIED",TRANSIT - NYC SUBWAY,09/25/2021,125 STREET,25-44,WHITE HISPANIC,M,3,25-44,WHITE HISPANIC,M,997374,234664,40.81077277,-73.95259159,"(40.81077276700007, -73.95259158999993)",POINT (-73.95259158999993 40.81077276700007),125 ST,1,2.78020999901851e-10
180,166978311,28,MANHATTAN,09/24/2021,15:25:00,09/24/2021,15:35:00,COMPLETED,,,1,N.Y. TRANSIT POLICE,235,MISDEMEANOR,,DANGEROUS DRUGS,,PATROL BORO MAN NORTH,511,"CONTROLLED SUBSTANCE, POSSESSI",TRANSIT - NYC SUBWAY,09/24/2021,125 STREET,25-44,BLACK HISPANIC,M,3,UNKNOWN,UNKNOWN,E,999342,233575,40.80778062,-73.94548473,"(40.807780622000045, -73.94548472699995)",POINT (-73.94548472699995 40.807780622000045),125 ST,ABCD,5.81139808171326e-05
181,927515542,28,MANHATTAN,09/28/2021,7:10:00,09/28/2021,7:15:00,COMPLETED,,,1,N.Y. TRANSIT POLICE,344,MISDEMEANOR,,ASSAULT 3 & RELATED OFFENSES,,PATROL BORO MAN NORTH,113,"MENACING,UNCLASSIFIED",TRANSIT - NYC SUBWAY,09/28/2021,110 ST.-CENTRAL PARK NORTH,UNKNOWN,BLACK,M,3,18-24,BLACK,F,997535,230317,40.79884121,-73.95201859,"(40.798841208000056, -73.95201858499998)",POINT (-73.95201858499998 40.798841208000056),CENTRAL PK N110,23,7.64386192822156e-06
182,375512895,115,QUEENS,09/26/2021,10:45:00,09/26/2021,11:20:00,COMPLETED,,,1,N.Y. TRANSIT POLICE,341,MISDEMEANOR,,PETIT LARCENY,,PATROL BORO QUEENS NORTH,339,"LARCENY,PETIT FROM OPEN AREAS,",TRANSIT - NYC SUBWAY,09/26/2021,74 ST.-BROADWAY,UNKNOWN,UNKNOWN,U,20,UNKNOWN,UNKNOWN,D,1014333,211391,40.7468531,-73.8914322,"(40.74685309800003, -73.89143220299998)",POINT (-73.89143220299998 40.74685309800003),74 ST-BROADWAY,7,2.01027769995703e-07
183,608443177,75,BROOKLYN,09/24/2021,16:40:00,09/24/2021,16:47:00,COMPLETED,,,1,N.Y. TRANSIT POLICE,235,MISDEMEANOR,,DANGEROUS DRUGS,,PATROL BORO BKLYN NORTH,567,"MARIJUANA, POSSESSION 4 & 5",TRANSIT - NYC SUBWAY,09/24/2021,NEW LOTS AVENUE,25-44,BLACK,M,33,UNKNOWN,UNKNOWN,E,1012212,179425,40.65912094,-73.89921959,"(40.65912094200007, -73.89921958799994)",POINT (-73.89921958799994 40.65912094200007),NEW LOTS,L,5.68493837013002e-08
184,979350970,78,BROOKLYN,09/29/2021,18:45:00,09/29/2021,18:50:00,COMPLETED,,,1,N.Y. TRANSIT POLICE,361,MISDEMEANOR,,OFF. AGNST PUB ORD SENSBLTY &,,PATROL BORO BKLYN SOUTH,661,"LEWDNESS,PUBLIC",TRANSIT - NYC SUBWAY,09/29/2021,7TH AVENUE,UNKNOWN,BLACK,M,32,UNKNOWN,UNKNOWN,E,991724,186291,40.67800758,-73.97305571,"(40.67800757700008, -73.97305570499998)",POINT (-73.97305570499998 40.67800757700008),GRAND ARMY PLAZ,23,1.17205899804888e-05
185,843771808,72,BROOKLYN,09/23/2021,2:00:00,09/24/2021,1:00:00,COMPLETED,,,1,N.Y. TRANSIT POLICE,109,FELONY,,GRAND LARCENY,,PATROL BORO BKLYN SOUTH,439,"LARCENY,GRAND FROM OPEN AREAS, UNATTENDED",TRANSIT - NYC SUBWAY,09/24/2021,25 STREET,,,,32,UNKNOWN,UNKNOWN,D,984801,179904,40.66047982,-73.99801547,"(40.66047982200007, -73.99801546599997)",POINT (-73.99801546599997 40.66047982200007),25 ST,R,4.68058513002904e-08
186,113951684,75,BROOKLYN,09/23/2021,19:00:00,09/23/2021,20:00:00,COMPLETED,,,1,N.Y. TRANSIT POLICE,116,FELONY,,SEX CRIMES,,PATROL BORO BKLYN NORTH,168,SODOMY 1,TRANSIT - NYC SUBWAY,09/24/2021,GRANT AVENUE,UNKNOWN,UNKNOWN,U,33,<18,BLACK,F,1017141,183798,40.67110691,-73.88143296,"(40.67110691100004, -73.88143295699997)",POINT (-73.88143295699997 40.67110691100004),SHEPHERD AV,C,9.53415165169126e-06
187,583474425,13,MANHATTAN,09/29/2021,16:59:00,09/29/2021,17:00:00,COMPLETED,,,1,N.Y. TRANSIT POLICE,109,FELONY,,GRAND LARCENY,,PATROL BORO MAN SOUTH,401,"LARCENY,GRAND BY ACQUIRING LOS",TRANSIT - NYC SUBWAY,09/29/2021,14 STREET,25-44,BLACK HISPANIC,M,4,25-44,WHITE HISPANIC,M,987048,206851,40.73444265,-73.98990538,"(40.73444264900007, -73.98990537699996)",POINT (-73.98990537699996 40.73444264900007),14 ST-UNION SQ,456LNQRW,1.83745136916839e-07
188,752275834,107,QUEENS,09/25/2021,16:30:00,09/25/2021,16:55:00,COMPLETED,,,1,N.Y. TRANSIT POLICE,111,FELONY,,POSSESSION OF STOLEN PROPERTY,,PATROL BORO QUEENS SOUTH,494,"STOLEN PROPERTY 2,1,POSSESSION",TRANSIT - NYC SUBWAY,09/25/2021,VAN WYCK BLVD.-BRIARWOOD,18-24,WHITE HISPANIC,M,20,25-44,WHITE HISPANIC,M,1033843,198068,40.71019689,-73.82111915,"(40.71019689400004, -73.82111915199994)",POINT (-73.82111915199994 40.71019689400004),BRIARWOOD,EF,2.66993401060478e-06
189,754950975,7,MANHATTAN,09/23/2021,11:15:00,09/23/2021,11:25:00,COMPLETED,,,1,N.Y. TRANSIT POLICE,343,MISDEMEANOR,,THEFT OF SERVICES,,PATROL BORO MAN SOUTH,475,UNAUTH. SALE OF TRANS. SERVICE,TRANSIT - NYC SUBWAY,09/23/2021,DELANCEY STREET,25-44,BLACK HISPANIC,M,4,UNKNOWN,UNKNOWN,E,987521,201066,40.71856407,-73.98820145,"(40.718564066000056, -73.98820145399996)",POINT (-73.98820145399996 40.718564066000056),DELANCEY/ESSEX,FJMZ,1.68919400205645e-10
190,218074292,6,MANHATTAN,09/30/2021,16:30:00,09/30/2021,16:34:00,COMPLETED,,,1,N.Y. TRANSIT POLICE,351,MISDEMEANOR,,CRIMINAL MISCHIEF & RELATED OF,,PATROL BORO MAN SOUTH,271,"TAMPERING 3,2, CRIMINAL",TRANSIT - NYC SUBWAY,09/30/2021,14 STREET,,,,2,UNKNOWN,UNKNOWN,E,985126,207917,40.73736896,-73.99684042,"(40.73736895500008, -73.99684042399997)",POINT (-73.99684042399997 40.73736895500008),6 AV,FM,3.55219999494383e-11
191,867396841,44,BRONX,09/23/2021,15:40:00,09/23/2021,15:45:00,COMPLETED,,,1,N.Y. TRANSIT POLICE,341,MISDEMEANOR,,PETIT LARCENY,,PATROL BORO BRONX,339,"LARCENY,PETIT FROM OPEN AREAS,",TRANSIT - NYC SUBWAY,09/23/2021,161 ST.-YANKEE STADIUM,UNKNOWN,BLACK HISPANIC,M,11,45-64,BLACK HISPANIC,F,1004749,240880,40.8278199,-73.92593076,"(40.827819901000055, -73.92593075599996)",POINT (-73.92593075599996 40.827819901000055),161/YANKEE STAD,4BD,1.75402177599273e-07
192,786484619,73,BROOKLYN,09/27/2021,12:05:00,09/27/2021,12:10:00,COMPLETED,,,1,N.Y. TRANSIT POLICE,109,FELONY,,GRAND LARCENY,,PATROL BORO BKLYN NORTH,404,"LARCENY,GRAND FROM PERSON,PERSONAL ELECTRONIC DEVICE(SNATCH)",TRANSIT - NYC SUBWAY,09/27/2021,BROADWAY-EASTERN PKWY,18-24,BLACK,M,33,18-24,ASIAN / PACIFIC ISLANDER,F,1010719,186857,40.6795247,-73.90457154,"(40.67952470300003, -73.90457153799997)",POINT (-73.90457153799997 40.67952470300003),BROADWAY JCT,ACJLZ,3.03468067609383e-07
193,106114883,14,MANHATTAN,09/27/2021,15:00:00,09/27/2021,15:05:00,COMPLETED,,,1,N.Y. TRANSIT POLICE,109,FELONY,,GRAND LARCENY,,PATROL BORO MAN SOUTH,439,"LARCENY,GRAND FROM OPEN AREAS, UNATTENDED",TRANSIT - NYC SUBWAY,09/27/2021,42 ST.-TIMES SQUARE,25-44,BLACK,M,1,25-44,WHITE,M,987866,214721,40.75604354,-73.98694954,"(40.75604353500006, -73.98694954399997)",POINT (-73.98694954399997 40.75604353500006),TIMES SQ-42 ST,1237NQRSW,4.57076852010425e-08
194,390128030,84,BROOKLYN,09/23/2021,17:48:00,09/23/2021,17:50:00,COMPLETED,,,1,N.Y. TRANSIT POLICE,351,MISDEMEANOR,,CRIMINAL MISCHIEF & RELATED OF,,PATROL BORO BKLYN NORTH,258,"CRIMINAL MISCHIEF 4TH, GRAFFIT",TRANSIT - NYC SUBWAY,09/28/2021,DEKALB AVENUE,UNKNOWN,UNKNOWN,U,30,UNKNOWN,UNKNOWN,E,989388,190638,40.68994077,-73.98147429,"(40.689940767000046, -73.98147428699998)",POINT (-73.98147428699998 40.689940767000046),DEKALB AV,BDNQR,1.45867128996685e-07
195,386980718,10,MANHATTAN,09/29/2021,8:15:00,09/29/2021,8:18:00,COMPLETED,,,1,N.Y. TRANSIT POLICE,578,VIOLATION,,HARRASSMENT 2,,PATROL BORO MAN SOUTH,638,"HARASSMENT,SUBD 3,4,5",TRANSIT - NYC SUBWAY,09/29/2021,14 STREET,18-24,BLACK,M,2,<18,BLACK,F,983551,208788,40.73975965,-74.00252386,"(40.739759650000046, -74.00252386299998)",POINT (-74.00252386299998 40.739759650000046),14 ST,123FLM,6.91518500998922e-08
196,259324736,14,MANHATTAN,09/15/2021,3:45:00,09/15/2021,3:50:00,COMPLETED,,,1,N.Y. TRANSIT POLICE,361,MISDEMEANOR,,OFF. AGNST PUB ORD SENSBLTY &,,PATROL BORO MAN SOUTH,661,"LEWDNESS,PUBLIC",TRANSIT - NYC SUBWAY,09/29/2021,34 ST.-PENN STATION,UNKNOWN,UNKNOWN,M,2,UNKNOWN,UNKNOWN,E,986061,213320,40.7521987,-73.99346504,"(40.75219869800003, -73.99346504499994)",POINT (-73.99346504499994 40.75219869800003),34 ST-PENN STA,ACE,6.28589215993998e-08
197,367924476,18,MANHATTAN,09/27/2021,11:42:00,09/27/2021,12:00:00,COMPLETED,,,1,N.Y. TRANSIT POLICE,344,MISDEMEANOR,,ASSAULT 3 & RELATED OFFENSES,,PATROL BORO MAN SOUTH,101,ASSAULT 3,TRANSIT - NYC SUBWAY,09/27/2021,7 AVENUE,UNKNOWN,BLACK,F,1,25-44,ASIAN / PACIFIC ISLANDER,F,989266,217247,40.76297608,-73.98189438,"(40.76297607600002, -73.98189437799994)",POINT (-73.98189437799994 40.76297607600002),7 AV,BQ,2.62809950804953e-07
198,450055516,14,MANHATTAN,09/26/2021,5:10:00,09/26/2021,5:30:00,ATTEMPTED,,,1,N.Y. TRANSIT POLICE,109,FELONY,,GRAND LARCENY,,PATROL BORO MAN SOUTH,408,"LARCENY,GRAND FROM PERSON,LUSH WORKER(SLEEPING/UNCON VICTIM)",TRANSIT - NYC SUBWAY,09/26/2021,42 ST.-PORT AUTHORITY BUS TERM,,,,1,25-44,WHITE HISPANIC,F,987078,215157,40.75724053,-73.98979364,"(40.757240531000036, -73.98979363699993)",POINT (-73.98979363699993 40.757240531000036),42 ST-PORT AUTH,ACE,6.47682602487066e-07
199,441717156,41,BRONX,09/23/2021,0:50:00,09/23/2021,1:00:00,COMPLETED,,,1,N.Y. TRANSIT POLICE,109,FELONY,,GRAND LARCENY,,PATROL BORO BRONX,414,"LARCENY,GRAND PERSON,NECK CHAI",TRANSIT - NYC SUBWAY,09/23/2021,INTERVALE AVENUE,25-44,BLACK,M,12,25-44,BLACK HISPANIC,M,1012791,238814,40.822127,-73.89688076,"(40.822126997000055, -73.89688075599996)",POINT (-73.89688075599996 40.822126997000055),INTERVALE AV,25,2.37462656003029e-08
200,407825411,108,QUEENS,09/27/2021,20:00:00,09/27/2021,20:10:00,COMPLETED,,,1,N.Y. TRANSIT POLICE,344,MISDEMEANOR,,ASSAULT 3 & RELATED OFFENSES,,PATROL BORO QUEENS NORTH,101,ASSAULT 3,TRANSIT - NYC SUBWAY,09/28/2021,QUEENS PLAZA,25-44,BLACK,F,20,25-44,ASIAN / PACIFIC ISLANDER,F,1001596,212133,40.74892386,-73.93739797,"(40.74892385700008, -73.93739797299997)",POINT (-73.93739797299997 40.74892385700008),QUEENS PLAZA,EMR,7.62669049926756e-09
201,854091989,28,MANHATTAN,09/28/2021,12:10:00,09/28/2021,12:27:00,COMPLETED,,,1,N.Y. TRANSIT POLICE,235,MISDEMEANOR,,DANGEROUS DRUGS,,PATROL BORO MAN NORTH,511,"CONTROLLED SUBSTANCE, POSSESSI",TRANSIT - NYC SUBWAY,09/28/2021,125 STREET,,,,3,UNKNOWN,UNKNOWN,E,999342,233575,40.80778062,-73.94548473,"(40.807780622000045, -73.94548472699995)",POINT (-73.94548472699995 40.807780622000045),125 ST,ABCD,5.81139808171326e-05
202,635173498,10,MANHATTAN,09/23/2021,18:15:00,09/23/2021,18:25:00,COMPLETED,,,1,N.Y. TRANSIT POLICE,344,MISDEMEANOR,,ASSAULT 3 & RELATED OFFENSES,,PATROL BORO MAN SOUTH,101,ASSAULT 3,TRANSIT - NYC SUBWAY,09/23/2021,28 STREET,45-64,WHITE,M,2,25-44,WHITE,M,986090,211515,40.74724442,-73.99336087,"(40.747244422000044, -73.99336086999993)",POINT (-73.99336086999993 40.747244422000044),28 ST,1,5.29144612972351e-08
203,138653285,103,QUEENS,03/05/2021,9:53:00,,,COMPLETED,,,1,N.Y. TRANSIT POLICE,121,FELONY,,CRIMINAL MISCHIEF & RELATED OF,,PATROL BORO QUEENS SOUTH,273,"TAMPERING 1,CRIMINAL",TRANSIT - NYC SUBWAY,09/29/2021,SUTPHIN BLVD.-ARCHER AVE.,25-44,BLACK,M,20,UNKNOWN,UNKNOWN,E,1037559,194576,40.70059059,-73.8077432,"(40.70059059000005, -73.80774319999993)",POINT (-73.80774319999993 40.70059059000005),JFK JAMAICA CT1,E,8.63477980993214e-08
204,694651514,73,BROOKLYN,09/23/2021,16:40:00,09/23/2021,16:50:00,COMPLETED,,,1,N.Y. TRANSIT POLICE,361,MISDEMEANOR,,OFF. AGNST PUB ORD SENSBLTY &,,PATROL BORO BKLYN NORTH,661,"LEWDNESS,PUBLIC",TRANSIT - NYC SUBWAY,09/23/2021,JUNIUS STREET,18-24,BLACK,M,32,18-24,BLACK,F,1011082,180980,40.66339257,-73.90328619,"(40.66339256800006, -73.90328619099995)",POINT (-73.90328619099995 40.66339256800006),JUNIUS ST,3,1.42908417009807e-07
205,951652990,14,MANHATTAN,09/24/2021,8:45:00,09/24/2021,8:50:00,COMPLETED,,,1,N.Y. TRANSIT POLICE,233,MISDEMEANOR,,SEX CRIMES,,PATROL BORO MAN SOUTH,175,"SEXUAL ABUSE 3,2",TRANSIT - NYC SUBWAY,09/24/2021,34 ST.-PENN STATION,UNKNOWN,BLACK,M,2,18-24,WHITE HISPANIC,F,985679,213954,40.75393894,-73.99484366,"(40.75393893800003, -73.99484365499995)",POINT (-73.99484365499995 40.75393893800003),34 ST-PENN STA,ACE,6.10259282117207e-06
206,879054717,9,MANHATTAN,09/27/2021,16:15:00,,,COMPLETED,,,1,N.Y. TRANSIT POLICE,233,MISDEMEANOR,,SEX CRIMES,,PATROL BORO MAN SOUTH,175,"SEXUAL ABUSE 3,2",TRANSIT - NYC SUBWAY,09/27/2021,1 AVENUE,UNKNOWN,UNKNOWN,M,4,UNKNOWN,UNKNOWN,F,987624,203977,40.72655402,-73.98782843,"(40.72655401900005, -73.98782842699995)",POINT (-73.98782842699995 40.72655401900005),2 AV,F,1.89145775473435e-05
207,247801114,60,BROOKLYN,09/22/2021,1:29:00,09/22/2021,1:42:00,COMPLETED,,,1,N.Y. TRANSIT POLICE,109,FELONY,,GRAND LARCENY,,PATROL BORO BKLYN SOUTH,408,"LARCENY,GRAND FROM PERSON,LUSH WORKER(SLEEPING/UNCON VICTIM)",TRANSIT - NYC SUBWAY,09/23/2021,BAY 50 STREET,,,,34,25-44,WHITE HISPANIC,F,988771,153727,40.5886283,-73.98372386,"(40.58862829600001, -73.98372385799998)",POINT (-73.98372385799998 40.58862829600001),BAY 50 ST,D,1.54441735978263e-08
208,792969411,13,MANHATTAN,09/26/2021,6:10:00,09/26/2021,6:38:00,COMPLETED,,,1,N.Y. TRANSIT POLICE,109,FELONY,,GRAND LARCENY,,PATROL BORO MAN SOUTH,417,"LARCENY,GRAND FROM PERSON,PURS",TRANSIT - NYC SUBWAY,09/26/2021,23 STREET,,,,2,45-64,ASIAN / PACIFIC ISLANDER,F,986244,209939,40.74291866,-73.99280555,"(40.74291866300007, -73.99280554899997)",POINT (-73.99280554899997 40.74291866300007),116 ST,23,1.71765212741576e-05
209,724290127,41,BRONX,09/28/2021,16:15:00,09/28/2021,16:19:00,COMPLETED,,,1,N.Y. TRANSIT POLICE,344,MISDEMEANOR,,ASSAULT 3 & RELATED OFFENSES,,PATROL BORO BRONX,113,"MENACING,UNCLASSIFIED",TRANSIT - NYC SUBWAY,09/28/2021,LONGWOOD AVENUE,45-64,WHITE HISPANIC,M,12,18-24,BLACK HISPANIC,M,1012978,236701,40.8163268,-73.89621416,"(40.81632680300004, -73.89621415799998)",POINT (-73.89621415799998 40.81632680300004),LONGWOOD AV,6,8.90813599588058e-10
210,679645791,18,MANHATTAN,09/24/2021,15:45:00,09/24/2021,15:55:00,COMPLETED,,,1,N.Y. TRANSIT POLICE,344,MISDEMEANOR,,ASSAULT 3 & RELATED OFFENSES,,PATROL BORO MAN SOUTH,101,ASSAULT 3,TRANSIT - NYC SUBWAY,09/24/2021,59 ST.-COLUMBUS CIRCLE,25-44,BLACK,F,1,25-44,ASIAN / PACIFIC ISLANDER,F,988451,217993,40.76502408,-73.98483595,"(40.76502407900006, -73.98483594999993)",POINT (-73.98483594999993 40.76502407900006),50 ST,1,9.8971953509148e-06
211,357718474,73,BROOKLYN,09/25/2021,3:10:00,09/25/2021,3:15:00,COMPLETED,,,1,N.Y. TRANSIT POLICE,359,MISDEMEANOR,,OFFENSES AGAINST PUBLIC ADMINI,,PATROL BORO BKLYN NORTH,750,RESISTING ARREST,TRANSIT - NYC SUBWAY,09/25/2021,BROADWAY-EAST NEW YORK,18-24,BLACK,F,33,UNKNOWN,UNKNOWN,E,1010287,186518,40.67859551,-73.90613036,"(40.67859550700007, -73.90613035499997)",POINT (-73.90613035499997 40.67859550700007),BROADWAY JCT,ACJLZ,4.68550045573496e-06
212,962641548,83,BROOKLYN,09/29/2021,15:50:00,09/29/2021,16:00:00,COMPLETED,,,1,N.Y. TRANSIT POLICE,578,VIOLATION,,HARRASSMENT 2,,PATROL BORO BKLYN NORTH,637,"HARASSMENT,SUBD 1,CIVILIAN",TRANSIT - NYC SUBWAY,09/29/2021,JEFFERSON STREET,45-64,BLACK,F,33,25-44,WHITE HISPANIC,F,1005435,196875,40.70703601,-73.92359067,"(40.70703601300004, -73.923590672)",POINT (-73.923590672 40.70703601300004),JEFFERSON ST,L,7.89635050033699e-08
213,210817188,110,QUEENS,09/24/2021,22:50:00,09/24/2021,22:53:00,COMPLETED,,,1,N.Y. TRANSIT POLICE,351,MISDEMEANOR,,CRIMINAL MISCHIEF & RELATED OF,,PATROL BORO QUEENS NORTH,258,"CRIMINAL MISCHIEF 4TH, GRAFFIT",TRANSIT - NYC SUBWAY,09/24/2021,WILLETS POINT-SHEA STADIUM,,,,20,UNKNOWN,UNKNOWN,E,1027679,214505,40.75534476,-73.8432466,"(40.75534475800004, -73.84324659799995)",POINT (-73.84324659799995 40.75534475800004),METS-WILLETS PT,7,6.19168051359898e-06
214,780631228,103,QUEENS,04/07/2021,11:08:00,,,COMPLETED,,,1,N.Y. TRANSIT POLICE,121,FELONY,,CRIMINAL MISCHIEF & RELATED OF,,PATROL BORO QUEENS SOUTH,273,"TAMPERING 1,CRIMINAL",TRANSIT - NYC SUBWAY,09/29/2021,SUTPHIN BLVD.-ARCHER AVE.,25-44,BLACK,M,20,UNKNOWN,UNKNOWN,E,1037559,194576,40.70059059,-73.8077432,"(40.70059059000005, -73.80774319999993)",POINT (-73.80774319999993 40.70059059000005),JFK JAMAICA CT1,E,8.63477980993214e-08
215,819286776,28,MANHATTAN,09/30/2021,8:45:00,09/30/2021,9:45:00,COMPLETED,,,1,N.Y. TRANSIT POLICE,344,MISDEMEANOR,,ASSAULT 3 & RELATED OFFENSES,,PATROL BORO MAN NORTH,101,ASSAULT 3,TRANSIT - NYC SUBWAY,09/30/2021,116 STREET,<18,BLACK HISPANIC,M,3,<18,UNKNOWN,F,998181,231480,40.80203233,-73.94968294,"(40.80203233000003, -73.94968294499995)",POINT (-73.94968294499995 40.80203233000003),CENTRAL PK N110,23,3.36952728204725e-05
216,716441161,75,BROOKLYN,09/28/2021,11:38:00,09/28/2021,11:40:00,COMPLETED,,,1,N.Y. TRANSIT POLICE,109,FELONY,,GRAND LARCENY,,PATROL BORO BKLYN NORTH,419,"LARCENY,GRAND FROM PERSON,UNCL",TRANSIT - NYC SUBWAY,09/28/2021,CLEVELAND STREET,UNKNOWN,BLACK,M,33,45-64,WHITE HISPANIC,F,1015993,186914,40.67966381,-73.88555669,"(40.67966381400004, -73.88555669299996)",POINT (-73.88555669299996 40.67966381400004),CLEVELAND ST,J,9.27866652174184e-07
217,456254687,41,BRONX,09/28/2021,4:30:00,09/28/2021,4:36:00,COMPLETED,,,1,N.Y. TRANSIT POLICE,351,MISDEMEANOR,,CRIMINAL MISCHIEF & RELATED OF,,PATROL BORO BRONX,258,"CRIMINAL MISCHIEF 4TH, GRAFFIT",TRANSIT - NYC SUBWAY,09/28/2021,LONGWOOD AVENUE,25-44,BLACK HISPANIC,M,12,UNKNOWN,UNKNOWN,D,1012978,236701,40.8163268,-73.89621416,"(40.81632680300004, -73.89621415799998)",POINT (-73.89621415799998 40.81632680300004),LONGWOOD AV,6,8.90813599588058e-10
218,718763130,19,MANHATTAN,09/23/2021,17:35:00,09/23/2021,17:36:00,ATTEMPTED,,,1,N.Y. TRANSIT POLICE,343,MISDEMEANOR,,THEFT OF SERVICES,,PATROL BORO MAN NORTH,475,UNAUTH. SALE OF TRANS. SERVICE,TRANSIT - NYC SUBWAY,09/23/2021,86 STREET,25-44,BLACK,M,4,UNKNOWN,UNKNOWN,E,996551,223272,40.779506,-73.9555855,"(40.77950599700006, -73.95558550399994)",POINT (-73.95558550399994 40.77950599700006),86 ST,456,1.9262312899988e-05
219,927007929,41,BRONX,09/23/2021,2:55:00,09/23/2021,3:10:00,COMPLETED,,,1,N.Y. TRANSIT POLICE,105,FELONY,,ROBBERY,,PATROL BORO BRONX,386,"ROBBERY,PERSONAL ELECTRONIC DEVICE",TRANSIT - NYC SUBWAY,09/23/2021,HUNTS POINT AVENUE,18-24,BLACK,M,12,18-24,ASIAN / PACIFIC ISLANDER,M,1014509,238113,40.82019723,-73.89067667,"(40.820197232000055, -73.89067666599993)",POINT (-73.89067666599993 40.820197232000055),HUNTS POINT AV,6,4.09638381803233e-07
220,922337053,6,MANHATTAN,09/29/2021,23:50:00,09/30/2021,0:01:00,COMPLETED,,,1,N.Y. TRANSIT POLICE,109,FELONY,,GRAND LARCENY,,PATROL BORO MAN SOUTH,408,"LARCENY,GRAND FROM PERSON,LUSH WORKER(SLEEPING/UNCON VICTIM)",TRANSIT - NYC SUBWAY,09/30/2021,W. 4 STREET,UNKNOWN,BLACK,M,2,18-24,BLACK,F,983985,205857,40.7317148,-74.00095761,"(40.731714801000074, -74.00095761299998)",POINT (-74.00095761299998 40.731714801000074),W 4 ST-WASH SQ,ABCDEFM,4.31912386092433e-07
221,804761149,46,BRONX,09/25/2021,12:00:00,09/25/2021,12:15:00,COMPLETED,,,1,N.Y. TRANSIT POLICE,351,MISDEMEANOR,,CRIMINAL MISCHIEF & RELATED OF,,PATROL BORO BRONX,258,"CRIMINAL MISCHIEF 4TH, GRAFFIT",TRANSIT - NYC SUBWAY,09/25/2021,FORDHAM ROAD,,,,11,UNKNOWN,UNKNOWN,D,1012537,253108,40.86136065,-73.89773819,"(40.861360651000034, -73.89773818699997)",POINT (-73.89773818699997 40.861360651000034),FORDHAM RD,BD,5.00518599816892e-10
222,717828425,6,MANHATTAN,09/29/2021,20:00:00,09/29/2021,20:11:00,COMPLETED,,,1,N.Y. TRANSIT POLICE,358,MISDEMEANOR,,OFFENSES INVOLVING FRAUD,,PATROL BORO MAN SOUTH,705,"FORGERY,ETC.-MISD.",TRANSIT - NYC SUBWAY,09/29/2021,W. 4 STREET,45-64,BLACK,M,2,UNKNOWN,UNKNOWN,E,983985,205857,40.7317148,-74.00095761,"(40.731714801000074, -74.00095761299998)",POINT (-74.00095761299998 40.731714801000074),W 4 ST-WASH SQ,ABCDEFM,4.31912386092433e-07
223,100215621,14,MANHATTAN,09/24/2021,7:30:00,09/24/2021,7:34:00,COMPLETED,,,1,N.Y. TRANSIT POLICE,233,MISDEMEANOR,,SEX CRIMES,,PATROL BORO MAN SOUTH,175,"SEXUAL ABUSE 3,2",TRANSIT - NYC SUBWAY,09/28/2021,34 ST.-HERALD SQ.,45-64,BLACK,M,2,<18,BLACK,F,985679,213954,40.75393894,-73.99484366,"(40.75393893800003, -73.99484365499995)",POINT (-73.99484365499995 40.75393893800003),34 ST-PENN STA,ACE,6.10259282117207e-06
224,524421373,77,BROOKLYN,09/23/2021,1:07:00,09/23/2021,1:25:00,COMPLETED,,,1,N.Y. TRANSIT POLICE,106,FELONY,,FELONY ASSAULT,,PATROL BORO BKLYN NORTH,109,"ASSAULT 2,1,UNCLASSIFIED",TRANSIT - NYC SUBWAY,09/23/2021,FRANKLIN AVENUE,25-44,BLACK,M,32,25-44,BLACK,M,995908,183618,40.67066627,-73.95797591,"(40.67066627200006, -73.95797590799998)",POINT (-73.95797590799998 40.67066627200006),FRANKLIN AV,2345,2.39607009982189e-08
225,345250431,5,MANHATTAN,09/23/2021,8:35:00,09/23/2021,8:40:00,COMPLETED,,,1,N.Y. TRANSIT POLICE,235,MISDEMEANOR,,DANGEROUS DRUGS,,PATROL BORO MAN SOUTH,511,"CONTROLLED SUBSTANCE, POSSESSI",TRANSIT - NYC SUBWAY,09/23/2021,GRAND STREET,25-44,BLACK,M,4,UNKNOWN,UNKNOWN,E,985961,200916,40.71815279,-73.99382913,"(40.71815279100008, -73.99382912599998)",POINT (-73.99382912599998 40.71815279100008),GRAND ST,BD,6.75463489970558e-08
226,575814853,18,MANHATTAN,09/24/2021,8:50:00,09/24/2021,8:54:00,COMPLETED,,,1,N.Y. TRANSIT POLICE,578,VIOLATION,,HARRASSMENT 2,,PATROL BORO MAN SOUTH,638,"HARASSMENT,SUBD 3,4,5",TRANSIT - NYC SUBWAY,09/24/2021,7 AVENUE,25-44,BLACK,M,1,25-44,BLACK HISPANIC,F,989266,217247,40.76297608,-73.98189438,"(40.76297607600002, -73.98189437799994)",POINT (-73.98189437799994 40.76297607600002),7 AV,BQ,2.62809950804953e-07
227,817257746,83,BROOKLYN,09/24/2021,14:24:00,09/24/2021,14:38:00,COMPLETED,,,1,N.Y. TRANSIT POLICE,358,MISDEMEANOR,,OFFENSES INVOLVING FRAUD,,PATROL BORO BKLYN NORTH,705,"FORGERY,ETC.-MISD.",TRANSIT - NYC SUBWAY,09/24/2021,MYRTLE AVENUE,,,,33,UNKNOWN,UNKNOWN,E,1002212,193214,40.69699456,-73.93522526,"(40.69699455600005, -73.93522525599997)",POINT (-73.93522525599997 40.69699455600005),MYRTLE AV,JMZ,5.65721012050944e-08
